{
"type": "FeatureCollection",
"name": "USA_Parks_Centroids2",
"crs": { "type": "name", "properties": { "name": "urn:ogc:def:crs:OGC:1.3:CRS84" } },
"features": [
{ "type": "Feature", "properties": { "OBJECTID": 1, "NAME": "Jefferson Park", "FCC": "D85", "SQMI": 0.05057, "ORIG_FID": 1 }, "geometry": { "type": "Point", "coordinates": [ -118.34359, 46.05458 ] } },
{ "type": "Feature", "properties": { "OBJECTID": 2, "NAME": "Kekaha Beach Park", "FCC": "D85", "SQMI": 0.0932, "ORIG_FID": 2 }, "geometry": { "type": "Point", "coordinates": [ -159.72305, 21.96963 ] } },
{ "type": "Feature", "properties": { "OBJECTID": 3, "NAME": "Kukuiolono Park and Golf Cours", "FCC": "D85", "SQMI": 0.1766, "ORIG_FID": 3 }, "geometry": { "type": "Point", "coordinates": [ -159.53246, 21.91694 ] } },
{ "type": "Feature", "properties": { "OBJECTID": 4, "NAME": "Kiwanis Park", "FCC": "D85", "SQMI": 0.11401, "ORIG_FID": 4 }, "geometry": { "type": "Point", "coordinates": [ -118.38142, 46.04987 ] } },
{ "type": "Feature", "properties": { "OBJECTID": 5, "NAME": "Hanapepe Park", "FCC": "D85", "SQMI": 0.10761, "ORIG_FID": 5 }, "geometry": { "type": "Point", "coordinates": [ -159.60063, 21.90761 ] } },
{ "type": "Feature", "properties": { "OBJECTID": 6, "NAME": "Fort Walla Walla City Park", "FCC": "D85", "SQMI": 0.13102, "ORIG_FID": 6 }, "geometry": { "type": "Point", "coordinates": [ -118.35742, 46.04743 ] } },
{ "type": "Feature", "properties": { "OBJECTID": 7, "NAME": "Hanapepe Stadium", "FCC": "D85", "SQMI": 0.0621, "ORIG_FID": 7 }, "geometry": { "type": "Point", "coordinates": [ -159.59425, 21.906 ] } },
{ "type": "Feature", "properties": { "OBJECTID": 8, "NAME": "Salt Pond Park", "FCC": "D85", "SQMI": 0.4358, "ORIG_FID": 8 }, "geometry": { "type": "Point", "coordinates": [ -159.61743, 21.90627 ] } },
{ "type": "Feature", "properties": { "OBJECTID": 9, "NAME": "Tietan Park", "FCC": "D85", "SQMI": 0.07268, "ORIG_FID": 9 }, "geometry": { "type": "Point", "coordinates": [ -118.32254, 46.04779 ] } },
{ "type": "Feature", "properties": { "OBJECTID": 10, "NAME": "Haena Park", "FCC": "D85", "SQMI": 0.62236, "ORIG_FID": 10 }, "geometry": { "type": "Point", "coordinates": [ -159.55621, 22.22117 ] } },
{ "type": "Feature", "properties": { "OBJECTID": 11, "NAME": "Haena State Park", "FCC": "D85", "SQMI": 0.09858, "ORIG_FID": 11 }, "geometry": { "type": "Point", "coordinates": [ -159.58009, 22.22176 ] } },
{ "type": "Feature", "properties": { "OBJECTID": 12, "NAME": "Lions Park", "FCC": "D85", "SQMI": 0.03665, "ORIG_FID": 12 }, "geometry": { "type": "Point", "coordinates": [ -118.37632, 46.04066 ] } },
{ "type": "Feature", "properties": { "OBJECTID": 13, "NAME": "Rooks Park", "FCC": "D85", "SQMI": 0.01613, "ORIG_FID": 13 }, "geometry": { "type": "Point", "coordinates": [ -118.25581, 46.08108 ] } },
{ "type": "Feature", "properties": { "OBJECTID": 14, "NAME": "Na Pali Coast State Park", "FCC": "D85", "SQMI": 22.40346, "ORIG_FID": 14 }, "geometry": { "type": "Point", "coordinates": [ -159.60975, 22.18014 ] } },
{ "type": "Feature", "properties": { "OBJECTID": 15, "NAME": "Lions Park", "FCC": "D85", "SQMI": 0.02424, "ORIG_FID": 15 }, "geometry": { "type": "Point", "coordinates": [ -118.30187, 46.07385 ] } },
{ "type": "Feature", "properties": { "OBJECTID": 16, "NAME": "Schmuck Park", "FCC": "D85", "SQMI": 0.03888, "ORIG_FID": 16 }, "geometry": { "type": "Point", "coordinates": [ -117.35852, 46.89472 ] } },
{ "type": "Feature", "properties": { "OBJECTID": 17, "NAME": "Kokee State Park", "FCC": "D85", "SQMI": 114.3599, "ORIG_FID": 17 }, "geometry": { "type": "Point", "coordinates": [ -159.64457, 22.08203 ] } },
{ "type": "Feature", "properties": { "OBJECTID": 18, "NAME": "Waimea Canyon State Park", "FCC": "D85", "SQMI": 2.91358, "ORIG_FID": 18 }, "geometry": { "type": "Point", "coordinates": [ -159.67468, 22.04068 ] } },
{ "type": "Feature", "properties": { "OBJECTID": 19, "NAME": "Waioli Beach Park", "FCC": "D85", "SQMI": 0.01572, "ORIG_FID": 19 }, "geometry": { "type": "Point", "coordinates": [ -159.50177, 22.2034 ] } },
{ "type": "Feature", "properties": { "OBJECTID": 20, "NAME": "Waioli Beach Park", "FCC": "D85", "SQMI": 0.03171, "ORIG_FID": 20 }, "geometry": { "type": "Point", "coordinates": [ -159.50669, 22.202 ] } },
{ "type": "Feature", "properties": { "OBJECTID": 21, "NAME": "Wallowa NF", "FCC": "D84", "SQMI": 1611.75714, "ORIG_FID": 21 }, "geometry": { "type": "Point", "coordinates": [ -117.02444, 45.50761 ] } },
{ "type": "Feature", "properties": { "OBJECTID": 22, "NAME": "Riverside Park", "FCC": "D85", "SQMI": 0.45451, "ORIG_FID": 22 }, "geometry": { "type": "Point", "coordinates": [ -118.06411, 45.34428 ] } },
{ "type": "Feature", "properties": { "OBJECTID": 23, "NAME": "Union County Fairgrounds", "FCC": "D85", "SQMI": 0.14735, "ORIG_FID": 23 }, "geometry": { "type": "Point", "coordinates": [ -118.10606, 45.34477 ] } },
{ "type": "Feature", "properties": { "OBJECTID": 24, "NAME": "Gore Park", "FCC": "D85", "SQMI": 0.16043, "ORIG_FID": 24 }, "geometry": { "type": "Point", "coordinates": [ -159.31184, 22.08664 ] } },
{ "type": "Feature", "properties": { "OBJECTID": 25, "NAME": "Waipoli Park", "FCC": "D85", "SQMI": 0.0578, "ORIG_FID": 25 }, "geometry": { "type": "Point", "coordinates": [ -159.31876, 22.06515 ] } },
{ "type": "Feature", "properties": { "OBJECTID": 26, "NAME": "Riverside Park", "FCC": "D85", "SQMI": 3.0000000000000001e-05, "ORIG_FID": 26 }, "geometry": { "type": "Point", "coordinates": [ -118.08424, 45.34193 ] } },
{ "type": "Feature", "properties": { "OBJECTID": 27, "NAME": "Benton Park", "FCC": "D85", "SQMI": 0.00723, "ORIG_FID": 27 }, "geometry": { "type": "Point", "coordinates": [ -118.09711, 45.33933 ] } },
{ "type": "Feature", "properties": { "OBJECTID": 28, "NAME": "Conordale Park", "FCC": "D85", "SQMI": 0.00403, "ORIG_FID": 28 }, "geometry": { "type": "Point", "coordinates": [ -118.08566, 45.31976 ] } },
{ "type": "Feature", "properties": { "OBJECTID": 29, "NAME": "Wailua Homesteads Park", "FCC": "D85", "SQMI": 0.0532, "ORIG_FID": 29 }, "geometry": { "type": "Point", "coordinates": [ -159.3676, 22.05729 ] } },
{ "type": "Feature", "properties": { "OBJECTID": 30, "NAME": "Bernie Park", "FCC": "D85", "SQMI": 0.00838, "ORIG_FID": 30 }, "geometry": { "type": "Point", "coordinates": [ -118.09303, 45.31356 ] } },
{ "type": "Feature", "properties": { "OBJECTID": 31, "NAME": "Catherine Creek State Park", "FCC": "D85", "SQMI": 262.21545, "ORIG_FID": 31 }, "geometry": { "type": "Point", "coordinates": [ -117.59096, 45.20777 ] } },
{ "type": "Feature", "properties": { "OBJECTID": 32, "NAME": "Hanalei Beach Park", "FCC": "D85", "SQMI": 0.21793, "ORIG_FID": 32 }, "geometry": { "type": "Point", "coordinates": [ -159.49573, 22.20917 ] } },
{ "type": "Feature", "properties": { "OBJECTID": 33, "NAME": "Wailua River State Park", "FCC": "D85", "SQMI": 24.27911, "ORIG_FID": 33 }, "geometry": { "type": "Point", "coordinates": [ -159.39947, 22.04206 ] } },
{ "type": "Feature", "properties": { "OBJECTID": 34, "NAME": "Headgate County Park", "FCC": "D85", "SQMI": 0.05299, "ORIG_FID": 34 }, "geometry": { "type": "Point", "coordinates": [ -117.2086, 46.32668 ] } },
{ "type": "Feature", "properties": { "OBJECTID": 35, "NAME": "Lewis and Clark State Park", "FCC": "D85", "SQMI": 1.85327, "ORIG_FID": 35 }, "geometry": { "type": "Point", "coordinates": [ -118.0676, 46.27896 ] } },
{ "type": "Feature", "properties": { "OBJECTID": 36, "NAME": "Kalawai Park", "FCC": "D85", "SQMI": 0.17845, "ORIG_FID": 36 }, "geometry": { "type": "Point", "coordinates": [ -159.52386, 21.9304 ] } },
{ "type": "Feature", "properties": { "OBJECTID": 37, "NAME": "Oswald West State Park", "FCC": "D85", "SQMI": 16.84486, "ORIG_FID": 37 }, "geometry": { "type": "Point", "coordinates": [ -123.92964, 45.75731 ] } },
{ "type": "Feature", "properties": { "OBJECTID": 38, "NAME": "City Park", "FCC": "D85", "SQMI": 0.01346, "ORIG_FID": 38 }, "geometry": { "type": "Point", "coordinates": [ -117.58818, 46.47184 ] } },
{ "type": "Feature", "properties": { "OBJECTID": 39, "NAME": "Spouting Horn Park", "FCC": "D85", "SQMI": 0.20465, "ORIG_FID": 39 }, "geometry": { "type": "Point", "coordinates": [ -159.4996, 21.8898 ] } },
{ "type": "Feature", "properties": { "OBJECTID": 40, "NAME": "Central Ferry State Park", "FCC": "D85", "SQMI": 43.52365, "ORIG_FID": 40 }, "geometry": { "type": "Point", "coordinates": [ -117.93191, 46.62636 ] } },
{ "type": "Feature", "properties": { "OBJECTID": 41, "NAME": "Puu O Mahuka Heiau State Histo", "FCC": "D85", "SQMI": 1.6443, "ORIG_FID": 41 }, "geometry": { "type": "Point", "coordinates": [ -158.04194, 21.63964 ] } },
{ "type": "Feature", "properties": { "OBJECTID": 42, "NAME": "Camp Wooten State Park", "FCC": "D85", "SQMI": 32.69329, "ORIG_FID": 42 }, "geometry": { "type": "Point", "coordinates": [ -117.64926, 46.25691 ] } },
{ "type": "Feature", "properties": { "OBJECTID": 43, "NAME": "Waianae State Park", "FCC": "D85", "SQMI": 0.02642, "ORIG_FID": 43 }, "geometry": { "type": "Point", "coordinates": [ -158.18304, 21.43353 ] } },
{ "type": "Feature", "properties": { "OBJECTID": 44, "NAME": "Crane Park", "FCC": "D85", "SQMI": 0.00676, "ORIG_FID": 44 }, "geometry": { "type": "Point", "coordinates": [ -157.81432, 21.28587 ] } },
{ "type": "Feature", "properties": { "OBJECTID": 45, "NAME": "Fields Spring St Park", "FCC": "D85", "SQMI": 91.17347, "ORIG_FID": 45 }, "geometry": { "type": "Point", "coordinates": [ -117.30088, 46.0705 ] } },
{ "type": "Feature", "properties": { "OBJECTID": 46, "NAME": "Fort Clatsop NMEM", "FCC": "D83", "SQMI": 0.19905, "ORIG_FID": 46 }, "geometry": { "type": "Point", "coordinates": [ -123.87968, 46.13386 ] } },
{ "type": "Feature", "properties": { "OBJECTID": 47, "NAME": "Diamond Head State Monument", "FCC": "D85", "SQMI": 0.31049, "ORIG_FID": 47 }, "geometry": { "type": "Point", "coordinates": [ -157.80784, 21.26086 ] } },
{ "type": "Feature", "properties": { "OBJECTID": 48, "NAME": "Umatilla (Wash.) NF", "FCC": "D84", "SQMI": 323.29101, "ORIG_FID": 48 }, "geometry": { "type": "Point", "coordinates": [ -117.60039, 46.16044 ] } },
{ "type": "Feature", "properties": { "OBJECTID": 49, "NAME": "Diamond Head Beach Park", "FCC": "D85", "SQMI": 0.05758, "ORIG_FID": 49 }, "geometry": { "type": "Point", "coordinates": [ -157.80246, 21.25634 ] } },
{ "type": "Feature", "properties": { "OBJECTID": 50, "NAME": "Maritime Park", "FCC": "D85", "SQMI": 0.01892, "ORIG_FID": 50 }, "geometry": { "type": "Point", "coordinates": [ -123.82631, 46.18992 ] } },
{ "type": "Feature", "properties": { "OBJECTID": 51, "NAME": "Kahana Valley State Park", "FCC": "D85", "SQMI": 17.66049, "ORIG_FID": 51 }, "geometry": { "type": "Point", "coordinates": [ -157.8909, 21.54419 ] } },
{ "type": "Feature", "properties": { "OBJECTID": 52, "NAME": "Vollmer Park", "FCC": "D85", "SQMI": 0.05556, "ORIG_FID": 52 }, "geometry": { "type": "Point", "coordinates": [ -116.46836, 46.24449 ] } },
{ "type": "Feature", "properties": { "OBJECTID": 53, "NAME": "Ala Moana Park", "FCC": "D85", "SQMI": 0.19054, "ORIG_FID": 53 }, "geometry": { "type": "Point", "coordinates": [ -157.84763, 21.28851 ] } },
{ "type": "Feature", "properties": { "OBJECTID": 54, "NAME": "4-H Fair Grounds", "FCC": "D85", "SQMI": 0.01373, "ORIG_FID": 54 }, "geometry": { "type": "Point", "coordinates": [ -123.82032, 46.1888 ] } },
{ "type": "Feature", "properties": { "OBJECTID": 55, "NAME": "Hillcrest Park", "FCC": "D85", "SQMI": 0.22292, "ORIG_FID": 55 }, "geometry": { "type": "Point", "coordinates": [ -155.98147, 19.63127 ] } },
{ "type": "Feature", "properties": { "OBJECTID": 56, "NAME": "City Park", "FCC": "D85", "SQMI": 0.00993, "ORIG_FID": 56 }, "geometry": { "type": "Point", "coordinates": [ -116.47173, 46.24019 ] } },
{ "type": "Feature", "properties": { "OBJECTID": 57, "NAME": "Vernon Park", "FCC": "D85", "SQMI": 0.00363, "ORIG_FID": 57 }, "geometry": { "type": "Point", "coordinates": [ -117.04613, 46.41035 ] } },
{ "type": "Feature", "properties": { "OBJECTID": 58, "NAME": "Warren Field", "FCC": "D85", "SQMI": 0.01323, "ORIG_FID": 58 }, "geometry": { "type": "Point", "coordinates": [ -123.82143, 46.18766 ] } },
{ "type": "Feature", "properties": { "OBJECTID": 59, "NAME": "Isaac Hale Park", "FCC": "D85", "SQMI": 0.45899, "ORIG_FID": 59 }, "geometry": { "type": "Point", "coordinates": [ -154.85425, 19.44734 ] } },
{ "type": "Feature", "properties": { "OBJECTID": 60, "NAME": "Beachview Park", "FCC": "D85", "SQMI": 0.03141, "ORIG_FID": 60 }, "geometry": { "type": "Point", "coordinates": [ -117.04005, 46.40777 ] } },
{ "type": "Feature", "properties": { "OBJECTID": 61, "NAME": "Hookena Beach Park", "FCC": "D85", "SQMI": 2.00236, "ORIG_FID": 61 }, "geometry": { "type": "Point", "coordinates": [ -155.88438, 19.34578 ] } },
{ "type": "Feature", "properties": { "OBJECTID": 62, "NAME": "Bruceport Park", "FCC": "D85", "SQMI": 0.82656, "ORIG_FID": 62 }, "geometry": { "type": "Point", "coordinates": [ -123.88031, 46.68862 ] } },
{ "type": "Feature", "properties": { "OBJECTID": 63, "NAME": "Chief Looking Glass Park", "FCC": "D85", "SQMI": 0.13889, "ORIG_FID": 63 }, "geometry": { "type": "Point", "coordinates": [ -117.04213, 46.33972 ] } },
{ "type": "Feature", "properties": { "OBJECTID": 64, "NAME": "Culbertson Park", "FCC": "D85", "SQMI": 0.01828, "ORIG_FID": 64 }, "geometry": { "type": "Point", "coordinates": [ -124.05155, 46.34903 ] } },
{ "type": "Feature", "properties": { "OBJECTID": 65, "NAME": "Harry K Brown Park", "FCC": "D85", "SQMI": 2.07941, "ORIG_FID": 65 }, "geometry": { "type": "Point", "coordinates": [ -154.98879, 19.34813 ] } },
{ "type": "Feature", "properties": { "OBJECTID": 66, "NAME": "Milolii Beach Park", "FCC": "D85", "SQMI": 15.1552, "ORIG_FID": 66 }, "geometry": { "type": "Point", "coordinates": [ -155.89475, 19.17403 ] } },
{ "type": "Feature", "properties": { "OBJECTID": 67, "NAME": "Hells Gate State Park", "FCC": "D85", "SQMI": 215.88804, "ORIG_FID": 67 }, "geometry": { "type": "Point", "coordinates": [ -116.84558, 46.07468 ] } },
{ "type": "Feature", "properties": { "OBJECTID": 68, "NAME": "Manuka State Park", "FCC": "D85", "SQMI": 79.17729, "ORIG_FID": 68 }, "geometry": { "type": "Point", "coordinates": [ -155.74456, 19.06856 ] } },
{ "type": "Feature", "properties": { "OBJECTID": 69, "NAME": "Fort Stevens State Park", "FCC": "D85", "SQMI": 6.75923, "ORIG_FID": 69 }, "geometry": { "type": "Point", "coordinates": [ -123.97549, 46.19111 ] } },
{ "type": "Feature", "properties": { "OBJECTID": 70, "NAME": "Mark Means Park", "FCC": "D85", "SQMI": 3.97437, "ORIG_FID": 70 }, "geometry": { "type": "Point", "coordinates": [ -116.93402, 46.41636 ] } },
{ "type": "Feature", "properties": { "OBJECTID": 71, "NAME": "Fort Columbia State Park", "FCC": "D85", "SQMI": 0.8714, "ORIG_FID": 71 }, "geometry": { "type": "Point", "coordinates": [ -123.94625, 46.27728 ] } },
{ "type": "Feature", "properties": { "OBJECTID": 72, "NAME": "Punaluu County Beach Park", "FCC": "D85", "SQMI": 161.95575, "ORIG_FID": 72 }, "geometry": { "type": "Point", "coordinates": [ -155.59014, 19.12302 ] } },
{ "type": "Feature", "properties": { "OBJECTID": 73, "NAME": "Winchester State Park", "FCC": "D85", "SQMI": 3.91213, "ORIG_FID": 73 }, "geometry": { "type": "Point", "coordinates": [ -116.6181, 46.22782 ] } },
{ "type": "Feature", "properties": { "OBJECTID": 74, "NAME": "Kaloko-Honokohau NHP", "FCC": "D83", "SQMI": 1.99014, "ORIG_FID": 74 }, "geometry": { "type": "Point", "coordinates": [ -156.03063, 19.6809 ] } },
{ "type": "Feature", "properties": { "OBJECTID": 75, "NAME": "Westhaven State Park", "FCC": "D85", "SQMI": 0.0007, "ORIG_FID": 75 }, "geometry": { "type": "Point", "coordinates": [ -124.13796, 46.90558 ] } },
{ "type": "Feature", "properties": { "OBJECTID": 76, "NAME": "Westport Light State Park", "FCC": "D85", "SQMI": 1.44526, "ORIG_FID": 76 }, "geometry": { "type": "Point", "coordinates": [ -124.12009, 46.89539 ] } },
{ "type": "Feature", "properties": { "OBJECTID": 77, "NAME": "Nez Perce NHP", "FCC": "D83", "SQMI": 3.28794, "ORIG_FID": 77 }, "geometry": { "type": "Point", "coordinates": [ -116.30895, 45.8518 ] } },
{ "type": "Feature", "properties": { "OBJECTID": 78, "NAME": "Indian Canyon Park", "FCC": "D85", "SQMI": 0.32756, "ORIG_FID": 78 }, "geometry": { "type": "Point", "coordinates": [ -117.4715, 47.65087 ] } },
{ "type": "Feature", "properties": { "OBJECTID": 79, "NAME": "Pu'uhonau O Honnaunau NHP", "FCC": "D83", "SQMI": 0.30744, "ORIG_FID": 79 }, "geometry": { "type": "Point", "coordinates": [ -155.90756, 19.41715 ] } },
{ "type": "Feature", "properties": { "OBJECTID": 80, "NAME": "Twin Harbors Beach State Park", "FCC": "D85", "SQMI": 3.68023, "ORIG_FID": 80 }, "geometry": { "type": "Point", "coordinates": [ -124.09318, 46.84477 ] } },
{ "type": "Feature", "properties": { "OBJECTID": 81, "NAME": "Salnave Park", "FCC": "D85", "SQMI": 0.0641, "ORIG_FID": 81 }, "geometry": { "type": "Point", "coordinates": [ -117.59449, 47.47925 ] } },
{ "type": "Feature", "properties": { "OBJECTID": 82, "NAME": "Hawaii Volcanoes NP", "FCC": "D83", "SQMI": 339.68769, "ORIG_FID": 82 }, "geometry": { "type": "Point", "coordinates": [ -155.32395, 19.37799 ] } },
{ "type": "Feature", "properties": { "OBJECTID": 83, "NAME": "Chief Garry Park", "FCC": "D85", "SQMI": 0.01849, "ORIG_FID": 83 }, "geometry": { "type": "Point", "coordinates": [ -117.371, 47.67118 ] } },
{ "type": "Feature", "properties": { "OBJECTID": 84, "NAME": "Pacific Beach State Park", "FCC": "D85", "SQMI": 0.07564, "ORIG_FID": 84 }, "geometry": { "type": "Point", "coordinates": [ -124.20084, 47.20676 ] } },
{ "type": "Feature", "properties": { "OBJECTID": 85, "NAME": "Kalama Park", "FCC": "D85", "SQMI": 0.06917, "ORIG_FID": 85 }, "geometry": { "type": "Point", "coordinates": [ -156.45313, 20.73197 ] } },
{ "type": "Feature", "properties": { "OBJECTID": 86, "NAME": "Riverfront Park", "FCC": "D85", "SQMI": 0.0201, "ORIG_FID": 86 }, "geometry": { "type": "Point", "coordinates": [ -117.4233, 47.66407 ] } },
{ "type": "Feature", "properties": { "OBJECTID": 87, "NAME": "Ocean City State Park", "FCC": "D85", "SQMI": 1.07757, "ORIG_FID": 87 }, "geometry": { "type": "Point", "coordinates": [ -124.16313, 47.0307 ] } },
{ "type": "Feature", "properties": { "OBJECTID": 88, "NAME": "Edge Cliff Park", "FCC": "D85", "SQMI": 0.01606, "ORIG_FID": 88 }, "geometry": { "type": "Point", "coordinates": [ -117.30533, 47.65046 ] } },
{ "type": "Feature", "properties": { "OBJECTID": 89, "NAME": "Griffiths-Priday Ocean St Park", "FCC": "D85", "SQMI": 1.66658, "ORIG_FID": 89 }, "geometry": { "type": "Point", "coordinates": [ -124.17531, 47.12863 ] } },
{ "type": "Feature", "properties": { "OBJECTID": 90, "NAME": "Haleakala NP", "FCC": "D83", "SQMI": 41.78502, "ORIG_FID": 90 }, "geometry": { "type": "Point", "coordinates": [ -156.16235, 20.71643 ] } },
{ "type": "Feature", "properties": { "OBJECTID": 91, "NAME": "Lincoln Park", "FCC": "D85", "SQMI": 0.02899, "ORIG_FID": 91 }, "geometry": { "type": "Point", "coordinates": [ -123.88786, 46.99085 ] } },
{ "type": "Feature", "properties": { "OBJECTID": 92, "NAME": "Cliff Park", "FCC": "D85", "SQMI": 0.00991, "ORIG_FID": 92 }, "geometry": { "type": "Point", "coordinates": [ -117.41868, 47.64445 ] } },
{ "type": "Feature", "properties": { "OBJECTID": 93, "NAME": "Palaau State Park", "FCC": "D85", "SQMI": 1.69519, "ORIG_FID": 93 }, "geometry": { "type": "Point", "coordinates": [ -156.98154, 21.17595 ] } },
{ "type": "Feature", "properties": { "OBJECTID": 94, "NAME": "Terrace Park", "FCC": "D85", "SQMI": 0.06812, "ORIG_FID": 94 }, "geometry": { "type": "Point", "coordinates": [ -117.22108, 47.63694 ] } },
{ "type": "Feature", "properties": { "OBJECTID": 95, "NAME": "John Gable Community Park", "FCC": "D85", "SQMI": 0.18296, "ORIG_FID": 95 }, "geometry": { "type": "Point", "coordinates": [ -123.91315, 46.98453 ] } },
{ "type": "Feature", "properties": { "OBJECTID": 96, "NAME": "High Drive Park", "FCC": "D85", "SQMI": 0.74614, "ORIG_FID": 96 }, "geometry": { "type": "Point", "coordinates": [ -117.41862, 47.61801 ] } },
{ "type": "Feature", "properties": { "OBJECTID": 97, "NAME": "Last Spur Park", "FCC": "D85", "SQMI": 0.00618, "ORIG_FID": 97 }, "geometry": { "type": "Point", "coordinates": [ -123.88683, 46.98384 ] } },
{ "type": "Feature", "properties": { "OBJECTID": 98, "NAME": "Valleyford County Park", "FCC": "D85", "SQMI": 0.11789, "ORIG_FID": 98 }, "geometry": { "type": "Point", "coordinates": [ -117.25434, 47.53082 ] } },
{ "type": "Feature", "properties": { "OBJECTID": 99, "NAME": "Lincoln Park", "FCC": "D85", "SQMI": 0.41096, "ORIG_FID": 99 }, "geometry": { "type": "Point", "coordinates": [ -117.37091, 47.63503 ] } },
{ "type": "Feature", "properties": { "OBJECTID": 100, "NAME": "Central Playground", "FCC": "D85", "SQMI": 0.00267, "ORIG_FID": 100 }, "geometry": { "type": "Point", "coordinates": [ -123.88638, 46.98069 ] } },
{ "type": "Feature", "properties": { "OBJECTID": 101, "NAME": "Riverside State Park", "FCC": "D85", "SQMI": 22.16974, "ORIG_FID": 101 }, "geometry": { "type": "Point", "coordinates": [ -117.57596, 47.75595 ] } },
{ "type": "Feature", "properties": { "OBJECTID": 102, "NAME": "Sunset Memorial Park", "FCC": "D85", "SQMI": 0.33963, "ORIG_FID": 102 }, "geometry": { "type": "Point", "coordinates": [ -123.89585, 46.98814 ] } },
{ "type": "Feature", "properties": { "OBJECTID": 103, "NAME": "Pole Park", "FCC": "D85", "SQMI": 0.01125, "ORIG_FID": 103 }, "geometry": { "type": "Point", "coordinates": [ -156.91979, 20.8253 ] } },
{ "type": "Feature", "properties": { "OBJECTID": 104, "NAME": "Sontag Park", "FCC": "D85", "SQMI": 0.14551, "ORIG_FID": 104 }, "geometry": { "type": "Point", "coordinates": [ -117.54778, 47.78156 ] } },
{ "type": "Feature", "properties": { "OBJECTID": 105, "NAME": "Harmon Field Park", "FCC": "D85", "SQMI": 0.01976, "ORIG_FID": 105 }, "geometry": { "type": "Point", "coordinates": [ -117.36632, 47.71292 ] } },
{ "type": "Feature", "properties": { "OBJECTID": 106, "NAME": "Beacon Hill Park", "FCC": "D85", "SQMI": 0.01202, "ORIG_FID": 106 }, "geometry": { "type": "Point", "coordinates": [ -123.87588, 46.97986 ] } },
{ "type": "Feature", "properties": { "OBJECTID": 107, "NAME": "Ukumehame Park", "FCC": "D85", "SQMI": 0.11898, "ORIG_FID": 107 }, "geometry": { "type": "Point", "coordinates": [ -156.56647, 20.79022 ] } },
{ "type": "Feature", "properties": { "OBJECTID": 108, "NAME": "City Park", "FCC": "D85", "SQMI": 0.08447, "ORIG_FID": 108 }, "geometry": { "type": "Point", "coordinates": [ -117.32529, 47.68765 ] } },
{ "type": "Feature", "properties": { "OBJECTID": 109, "NAME": "L St Park", "FCC": "D85", "SQMI": 0.0011, "ORIG_FID": 109 }, "geometry": { "type": "Point", "coordinates": [ -123.82789, 46.9805 ] } },
{ "type": "Feature", "properties": { "OBJECTID": 110, "NAME": "Riverside Dike Park", "FCC": "D85", "SQMI": 0.00962, "ORIG_FID": 110 }, "geometry": { "type": "Point", "coordinates": [ -123.87803, 46.97714 ] } },
{ "type": "Feature", "properties": { "OBJECTID": 111, "NAME": "Finch Playfield", "FCC": "D85", "SQMI": 0.02016, "ORIG_FID": 111 }, "geometry": { "type": "Point", "coordinates": [ -123.83006, 46.97704 ] } },
{ "type": "Feature", "properties": { "OBJECTID": 112, "NAME": "Franklin Field", "FCC": "D85", "SQMI": 0.00464, "ORIG_FID": 112 }, "geometry": { "type": "Point", "coordinates": [ -123.82328, 46.97345 ] } },
{ "type": "Feature", "properties": { "OBJECTID": 113, "NAME": "West End Playfield", "FCC": "D85", "SQMI": 0.00859, "ORIG_FID": 113 }, "geometry": { "type": "Point", "coordinates": [ -123.84729, 46.97209 ] } },
{ "type": "Feature", "properties": { "OBJECTID": 114, "NAME": "Minnehaha Park", "FCC": "D85", "SQMI": 0.02114, "ORIG_FID": 114 }, "geometry": { "type": "Point", "coordinates": [ -117.35101, 47.68655 ] } },
{ "type": "Feature", "properties": { "OBJECTID": 115, "NAME": "North Aberdeen Playfield", "FCC": "D85", "SQMI": 0.11131, "ORIG_FID": 115 }, "geometry": { "type": "Point", "coordinates": [ -123.80775, 46.98891 ] } },
{ "type": "Feature", "properties": { "OBJECTID": 116, "NAME": "Pioneer Park", "FCC": "D85", "SQMI": 0.12508, "ORIG_FID": 116 }, "geometry": { "type": "Point", "coordinates": [ -123.78756, 46.96532 ] } },
{ "type": "Feature", "properties": { "OBJECTID": 117, "NAME": "Palaau State Park", "FCC": "D85", "SQMI": 0.65385, "ORIG_FID": 117 }, "geometry": { "type": "Point", "coordinates": [ -157.01324, 21.17426 ] } },
{ "type": "Feature", "properties": { "OBJECTID": 118, "NAME": "Lions Park", "FCC": "D85", "SQMI": 0.00538, "ORIG_FID": 118 }, "geometry": { "type": "Point", "coordinates": [ -123.77611, 46.95954 ] } },
{ "type": "Feature", "properties": { "OBJECTID": 119, "NAME": "Hillcrest Park", "FCC": "D85", "SQMI": 0.10534, "ORIG_FID": 119 }, "geometry": { "type": "Point", "coordinates": [ -116.56761, 47.31069 ] } },
{ "type": "Feature", "properties": { "OBJECTID": 120, "NAME": "Gifford Pinchot NF", "FCC": "D84", "SQMI": 163.34882, "ORIG_FID": 120 }, "geometry": { "type": "Point", "coordinates": [ -121.50491, 46.41054 ] } },
{ "type": "Feature", "properties": { "OBJECTID": 121, "NAME": "Blackwell City Park", "FCC": "D85", "SQMI": 0.04919, "ORIG_FID": 121 }, "geometry": { "type": "Point", "coordinates": [ -116.78798, 47.67392 ] } },
{ "type": "Feature", "properties": { "OBJECTID": 122, "NAME": "Blackwell Park", "FCC": "D85", "SQMI": 0.04964, "ORIG_FID": 122 }, "geometry": { "type": "Point", "coordinates": [ -123.48847, 45.12936 ] } },
{ "type": "Feature", "properties": { "OBJECTID": 123, "NAME": "Hayton Green Park", "FCC": "D85", "SQMI": 0.01798, "ORIG_FID": 123 }, "geometry": { "type": "Point", "coordinates": [ -117.0825, 46.90893 ] } },
{ "type": "Feature", "properties": { "OBJECTID": 124, "NAME": "Tillamook SF", "FCC": "D85", "SQMI": 590.2448, "ORIG_FID": 124 }, "geometry": { "type": "Point", "coordinates": [ -123.58906, 45.58908 ] } },
{ "type": "Feature", "properties": { "OBJECTID": 125, "NAME": "Big Creek Park", "FCC": "D85", "SQMI": 0.39558, "ORIG_FID": 125 }, "geometry": { "type": "Point", "coordinates": [ -123.59103, 46.16051 ] } },
{ "type": "Feature", "properties": { "OBJECTID": 126, "NAME": "Roosevelt Park", "FCC": "D85", "SQMI": 0.17694, "ORIG_FID": 126 }, "geometry": { "type": "Point", "coordinates": [ -111.85973, 48.49753 ] } },
{ "type": "Feature", "properties": { "OBJECTID": 127, "NAME": "Iao Valley State Park", "FCC": "D85", "SQMI": 19.32811, "ORIG_FID": 127 }, "geometry": { "type": "Point", "coordinates": [ -156.54655, 20.89426 ] } },
{ "type": "Feature", "properties": { "OBJECTID": 128, "NAME": "Saddle Mountain State Park", "FCC": "D85", "SQMI": 19.38357, "ORIG_FID": 128 }, "geometry": { "type": "Point", "coordinates": [ -123.69642, 45.9471 ] } },
{ "type": "Feature", "properties": { "OBJECTID": 129, "NAME": "Lincoln Park", "FCC": "D85", "SQMI": 0.00391, "ORIG_FID": 129 }, "geometry": { "type": "Point", "coordinates": [ -111.86287, 48.49758 ] } },
{ "type": "Feature", "properties": { "OBJECTID": 130, "NAME": "Mary M Mc Croskey State Park", "FCC": "D85", "SQMI": 57.94192, "ORIG_FID": 130 }, "geometry": { "type": "Point", "coordinates": [ -116.94079, 47.08395 ] } },
{ "type": "Feature", "properties": { "OBJECTID": 131, "NAME": "Kamiak Butte County Park", "FCC": "D85", "SQMI": 15.50259, "ORIG_FID": 131 }, "geometry": { "type": "Point", "coordinates": [ -117.16974, 46.88492 ] } },
{ "type": "Feature", "properties": { "OBJECTID": 132, "NAME": "Southwest Park", "FCC": "D85", "SQMI": 0.0078, "ORIG_FID": 132 }, "geometry": { "type": "Point", "coordinates": [ -107.61814, 45.72882 ] } },
{ "type": "Feature", "properties": { "OBJECTID": 133, "NAME": "Sunset Highway State Park", "FCC": "D83", "SQMI": 33.74077, "ORIG_FID": 133 }, "geometry": { "type": "Point", "coordinates": [ -123.54041, 45.8694 ] } },
{ "type": "Feature", "properties": { "OBJECTID": 134, "NAME": "Kalaupapa NHP", "FCC": "D83", "SQMI": 16.75599, "ORIG_FID": 134 }, "geometry": { "type": "Point", "coordinates": [ -156.95094, 21.17329 ] } },
{ "type": "Feature", "properties": { "OBJECTID": 135, "NAME": "Chief Plenty Coups Mem St Park", "FCC": "D85", "SQMI": 2.6379, "ORIG_FID": 135 }, "geometry": { "type": "Point", "coordinates": [ -108.53969, 45.43136 ] } },
{ "type": "Feature", "properties": { "OBJECTID": 136, "NAME": "Coeur D'Alene NF", "FCC": "D84", "SQMI": 3.21169, "ORIG_FID": 136 }, "geometry": { "type": "Point", "coordinates": [ -116.34121, 47.4748 ] } },
{ "type": "Feature", "properties": { "OBJECTID": 137, "NAME": "Coeur d'Alene NF", "FCC": "D84", "SQMI": 1255.46694, "ORIG_FID": 137 }, "geometry": { "type": "Point", "coordinates": [ -116.21844, 47.72073 ] } },
{ "type": "Feature", "properties": { "OBJECTID": 138, "NAME": "Swords Park Propertyline", "FCC": "D85", "SQMI": 0.01162, "ORIG_FID": 138 }, "geometry": { "type": "Point", "coordinates": [ -108.48903, 45.79687 ] } },
{ "type": "Feature", "properties": { "OBJECTID": 139, "NAME": "Indian Caves State Park", "FCC": "D85", "SQMI": 3.95341, "ORIG_FID": 139 }, "geometry": { "type": "Point", "coordinates": [ -108.42145, 45.73769 ] } },
{ "type": "Feature", "properties": { "OBJECTID": 140, "NAME": "St. Joe NF", "FCC": "D84", "SQMI": 1422.94608, "ORIG_FID": 140 }, "geometry": { "type": "Point", "coordinates": [ -115.87983, 47.12291 ] } },
{ "type": "Feature", "properties": { "OBJECTID": 141, "NAME": "Waihee Beach Park", "FCC": "D85", "SQMI": 0.6869, "ORIG_FID": 141 }, "geometry": { "type": "Point", "coordinates": [ -156.50039, 20.92665 ] } },
{ "type": "Feature", "properties": { "OBJECTID": 142, "NAME": "Riverfront Park", "FCC": "D85", "SQMI": 0.05597, "ORIG_FID": 142 }, "geometry": { "type": "Point", "coordinates": [ -116.01643, 46.22738 ] } },
{ "type": "Feature", "properties": { "OBJECTID": 143, "NAME": "Bighorn Canyon Nat Rec Area", "FCC": "D83", "SQMI": 122.5157, "ORIG_FID": 143 }, "geometry": { "type": "Point", "coordinates": [ -108.27676, 45.13005 ] } },
{ "type": "Feature", "properties": { "OBJECTID": 144, "NAME": "Columbia County Fairgrounds", "FCC": "D85", "SQMI": 0.42717, "ORIG_FID": 144 }, "geometry": { "type": "Point", "coordinates": [ -122.8624, 45.85148 ] } },
{ "type": "Feature", "properties": { "OBJECTID": 145, "NAME": "Ponderosa State Park", "FCC": "D85", "SQMI": 122.87691, "ORIG_FID": 145 }, "geometry": { "type": "Point", "coordinates": [ -115.98012, 45.06297 ] } },
{ "type": "Feature", "properties": { "OBJECTID": 146, "NAME": "Clatsop SF", "FCC": "D85", "SQMI": 190.13519, "ORIG_FID": 146 }, "geometry": { "type": "Point", "coordinates": [ -123.44222, 45.94545 ] } },
{ "type": "Feature", "properties": { "OBJECTID": 147, "NAME": "Mokuhau Park", "FCC": "D85", "SQMI": 0.04784, "ORIG_FID": 147 }, "geometry": { "type": "Point", "coordinates": [ -156.51154, 20.8873 ] } },
{ "type": "Feature", "properties": { "OBJECTID": 148, "NAME": "Hudson Co Park", "FCC": "D85", "SQMI": 0.11284, "ORIG_FID": 148 }, "geometry": { "type": "Point", "coordinates": [ -122.99965, 46.09018 ] } },
{ "type": "Feature", "properties": { "OBJECTID": 149, "NAME": "Bighorn Canyon NRA", "FCC": "D83", "SQMI": 97.43627, "ORIG_FID": 149 }, "geometry": { "type": "Point", "coordinates": [ -108.2138, 45.02525 ] } },
{ "type": "Feature", "properties": { "OBJECTID": 150, "NAME": "Barnes St Park", "FCC": "D85", "SQMI": 3.93865, "ORIG_FID": 150 }, "geometry": { "type": "Point", "coordinates": [ -122.91681, 46.36107 ] } },
{ "type": "Feature", "properties": { "OBJECTID": 151, "NAME": "Nez Perce NF", "FCC": "D84", "SQMI": 3568.51173, "ORIG_FID": 151 }, "geometry": { "type": "Point", "coordinates": [ -115.47331, 45.81256 ] } },
{ "type": "Feature", "properties": { "OBJECTID": 152, "NAME": "Little Bighorn Battlefield NMO", "FCC": "D83", "SQMI": 1.18733, "ORIG_FID": 152 }, "geometry": { "type": "Point", "coordinates": [ -107.4175, 45.5562 ] } },
{ "type": "Feature", "properties": { "OBJECTID": 153, "NAME": "Seaquest State Park", "FCC": "D85", "SQMI": 0.5862, "ORIG_FID": 153 }, "geometry": { "type": "Point", "coordinates": [ -122.82551, 46.29241 ] } },
{ "type": "Feature", "properties": { "OBJECTID": 154, "NAME": "Crawford State Park", "FCC": "D85", "SQMI": 15.85359, "ORIG_FID": 154 }, "geometry": { "type": "Point", "coordinates": [ -117.34976, 48.95433 ] } },
{ "type": "Feature", "properties": { "OBJECTID": 155, "NAME": "Wibaux Park", "FCC": "D85", "SQMI": 0.0248, "ORIG_FID": 155 }, "geometry": { "type": "Point", "coordinates": [ -105.83179, 46.40595 ] } },
{ "type": "Feature", "properties": { "OBJECTID": 156, "NAME": "Wells Park", "FCC": "D85", "SQMI": 0.02683, "ORIG_FID": 156 }, "geometry": { "type": "Point", "coordinates": [ -156.50002, 20.88571 ] } },
{ "type": "Feature", "properties": { "OBJECTID": 157, "NAME": "Makoshika State Park", "FCC": "D85", "SQMI": 25.12162, "ORIG_FID": 157 }, "geometry": { "type": "Point", "coordinates": [ -104.68473, 47.05804 ] } },
{ "type": "Feature", "properties": { "OBJECTID": 158, "NAME": "Kahului Park", "FCC": "D85", "SQMI": 0.11228, "ORIG_FID": 158 }, "geometry": { "type": "Point", "coordinates": [ -156.47707, 20.88107 ] } },
{ "type": "Feature", "properties": { "OBJECTID": 159, "NAME": "Seaquest State Park", "FCC": "D85", "SQMI": 0.00224, "ORIG_FID": 159 }, "geometry": { "type": "Point", "coordinates": [ -122.82332, 46.29787 ] } },
{ "type": "Feature", "properties": { "OBJECTID": 160, "NAME": "Angus Mc Donald Park", "FCC": "D85", "SQMI": 0.00541, "ORIG_FID": 160 }, "geometry": { "type": "Point", "coordinates": [ -117.90535, 48.55118 ] } },
{ "type": "Feature", "properties": { "OBJECTID": 161, "NAME": "East Rosebud Park", "FCC": "D85", "SQMI": 0.40086, "ORIG_FID": 161 }, "geometry": { "type": "Point", "coordinates": [ -106.66945, 46.27467 ] } },
{ "type": "Feature", "properties": { "OBJECTID": 162, "NAME": "Douglas Falls Grange Park", "FCC": "D85", "SQMI": 26.45228, "ORIG_FID": 162 }, "geometry": { "type": "Point", "coordinates": [ -117.85838, 48.61575 ] } },
{ "type": "Feature", "properties": { "OBJECTID": 163, "NAME": "Pacific Road", "FCC": "D85", "SQMI": 0.03527, "ORIG_FID": 163 }, "geometry": { "type": "Point", "coordinates": [ -122.85246, 46.43676 ] } },
{ "type": "Feature", "properties": { "OBJECTID": 164, "NAME": "Kepaniwai Park", "FCC": "D85", "SQMI": 0.49218, "ORIG_FID": 164 }, "geometry": { "type": "Point", "coordinates": [ -156.5208, 20.87692 ] } },
{ "type": "Feature", "properties": { "OBJECTID": 165, "NAME": "Yep-Kanum-Colville City Park", "FCC": "D85", "SQMI": 0.0342, "ORIG_FID": 165 }, "geometry": { "type": "Point", "coordinates": [ -117.90151, 48.53827 ] } },
{ "type": "Feature", "properties": { "OBJECTID": 166, "NAME": "Custer NF", "FCC": "D84", "SQMI": 1991.32001, "ORIG_FID": 166 }, "geometry": { "type": "Point", "coordinates": [ -107.40557, 45.35744 ] } },
{ "type": "Feature", "properties": { "OBJECTID": 167, "NAME": "Ray Morse Park", "FCC": "D85", "SQMI": 0.40524, "ORIG_FID": 167 }, "geometry": { "type": "Point", "coordinates": [ -123.01224, 46.16532 ] } },
{ "type": "Feature", "properties": { "OBJECTID": 168, "NAME": "Makawao Park", "FCC": "D85", "SQMI": 0.43722, "ORIG_FID": 168 }, "geometry": { "type": "Point", "coordinates": [ -156.32058, 20.854 ] } },
{ "type": "Feature", "properties": { "OBJECTID": 169, "NAME": "Little League Park", "FCC": "D85", "SQMI": 0.09204, "ORIG_FID": 169 }, "geometry": { "type": "Point", "coordinates": [ -122.80809, 45.86554 ] } },
{ "type": "Feature", "properties": { "OBJECTID": 170, "NAME": "Coleman Wildlife Park", "FCC": "D85", "SQMI": 0.00384, "ORIG_FID": 170 }, "geometry": { "type": "Point", "coordinates": [ -106.45558, 48.0185 ] } },
{ "type": "Feature", "properties": { "OBJECTID": 171, "NAME": "Colville NF", "FCC": "D84", "SQMI": 1828.81979, "ORIG_FID": 171 }, "geometry": { "type": "Point", "coordinates": [ -117.95354, 48.71826 ] } },
{ "type": "Feature", "properties": { "OBJECTID": 172, "NAME": "Godfrey Park", "FCC": "D85", "SQMI": 0.01555, "ORIG_FID": 172 }, "geometry": { "type": "Point", "coordinates": [ -122.80161, 45.86625 ] } },
{ "type": "Feature", "properties": { "OBJECTID": 173, "NAME": "Big Muddy Park", "FCC": "D85", "SQMI": 0.09698, "ORIG_FID": 173 }, "geometry": { "type": "Point", "coordinates": [ -106.45892, 48.00335 ] } },
{ "type": "Feature", "properties": { "OBJECTID": 174, "NAME": "Paukukalo Park", "FCC": "D85", "SQMI": 0.59418, "ORIG_FID": 174 }, "geometry": { "type": "Point", "coordinates": [ -156.49674, 20.90764 ] } },
{ "type": "Feature", "properties": { "OBJECTID": 175, "NAME": "Priest River Park", "FCC": "D85", "SQMI": 0.1368, "ORIG_FID": 175 }, "geometry": { "type": "Point", "coordinates": [ -116.88356, 48.17623 ] } },
{ "type": "Feature", "properties": { "OBJECTID": 176, "NAME": "Columbia View Park", "FCC": "D85", "SQMI": 0.12031, "ORIG_FID": 176 }, "geometry": { "type": "Point", "coordinates": [ -122.7984, 45.85958 ] } },
{ "type": "Feature", "properties": { "OBJECTID": 177, "NAME": "Arcadia Park", "FCC": "D85", "SQMI": 0.03066, "ORIG_FID": 177 }, "geometry": { "type": "Point", "coordinates": [ -117.46237, 47.95295 ] } },
{ "type": "Feature", "properties": { "OBJECTID": 178, "NAME": "Civic Pride Park", "FCC": "D85", "SQMI": 0.00834, "ORIG_FID": 178 }, "geometry": { "type": "Point", "coordinates": [ -122.8089, 45.86122 ] } },
{ "type": "Feature", "properties": { "OBJECTID": 179, "NAME": "Heinie Heumann Park", "FCC": "D85", "SQMI": 0.01324, "ORIG_FID": 179 }, "geometry": { "type": "Point", "coordinates": [ -122.81199, 45.85582 ] } },
{ "type": "Feature", "properties": { "OBJECTID": 180, "NAME": "Oak Park", "FCC": "D85", "SQMI": 0.11123, "ORIG_FID": 180 }, "geometry": { "type": "Point", "coordinates": [ -101.31422, 48.23785 ] } },
{ "type": "Feature", "properties": { "OBJECTID": 181, "NAME": "Kanaha Beach Park", "FCC": "D85", "SQMI": 1.15545, "ORIG_FID": 181 }, "geometry": { "type": "Point", "coordinates": [ -156.43192, 20.8985 ] } },
{ "type": "Feature", "properties": { "OBJECTID": 182, "NAME": "Dragoon State Park", "FCC": "D85", "SQMI": 2.00033, "ORIG_FID": 182 }, "geometry": { "type": "Point", "coordinates": [ -117.43852, 47.887 ] } },
{ "type": "Feature", "properties": { "OBJECTID": 183, "NAME": "Mc Cormick Park", "FCC": "D85", "SQMI": 0.03184, "ORIG_FID": 183 }, "geometry": { "type": "Point", "coordinates": [ -122.81583, 45.85144 ] } },
{ "type": "Feature", "properties": { "OBJECTID": 184, "NAME": "East Lawn Park", "FCC": "D85", "SQMI": 0.03332, "ORIG_FID": 184 }, "geometry": { "type": "Point", "coordinates": [ -103.61231, 48.14914 ] } },
{ "type": "Feature", "properties": { "OBJECTID": 185, "NAME": "Chewelah City Park", "FCC": "D85", "SQMI": 0.00555, "ORIG_FID": 185 }, "geometry": { "type": "Point", "coordinates": [ -117.71483, 48.28173 ] } },
{ "type": "Feature", "properties": { "OBJECTID": 186, "NAME": "Kapaa Beach Park", "FCC": "D85", "SQMI": 2.56576, "ORIG_FID": 186 }, "geometry": { "type": "Point", "coordinates": [ -155.89172, 20.22031 ] } },
{ "type": "Feature", "properties": { "OBJECTID": 187, "NAME": "Abrams Park", "FCC": "D85", "SQMI": 0.14306, "ORIG_FID": 187 }, "geometry": { "type": "Point", "coordinates": [ -122.73752, 45.81864 ] } },
{ "type": "Feature", "properties": { "OBJECTID": 188, "NAME": "Roosevelt Park", "FCC": "D85", "SQMI": 0.22202, "ORIG_FID": 188 }, "geometry": { "type": "Point", "coordinates": [ -101.2728, 48.2365 ] } },
{ "type": "Feature", "properties": { "OBJECTID": 189, "NAME": "Pioneer Park", "FCC": "D85", "SQMI": 3.96108, "ORIG_FID": 189 }, "geometry": { "type": "Point", "coordinates": [ -117.19126, 48.24984 ] } },
{ "type": "Feature", "properties": { "OBJECTID": 190, "NAME": "Horseshoe Lake Park", "FCC": "D85", "SQMI": 0.04417, "ORIG_FID": 190 }, "geometry": { "type": "Point", "coordinates": [ -122.74775, 45.90009 ] } },
{ "type": "Feature", "properties": { "OBJECTID": 191, "NAME": "Keokea Beach Park", "FCC": "D85", "SQMI": 0.20266, "ORIG_FID": 191 }, "geometry": { "type": "Point", "coordinates": [ -155.75117, 20.22624 ] } },
{ "type": "Feature", "properties": { "OBJECTID": 192, "NAME": "Spring Lake Park", "FCC": "D85", "SQMI": 3.73026, "ORIG_FID": 192 }, "geometry": { "type": "Point", "coordinates": [ -103.61596, 48.21251 ] } },
{ "type": "Feature", "properties": { "OBJECTID": 193, "NAME": "Mahukona Beach Park", "FCC": "D85", "SQMI": 0.62888, "ORIG_FID": 193 }, "geometry": { "type": "Point", "coordinates": [ -155.89816, 20.17255 ] } },
{ "type": "Feature", "properties": { "OBJECTID": 194, "NAME": "Waimea Park", "FCC": "D85", "SQMI": 0.06688, "ORIG_FID": 194 }, "geometry": { "type": "Point", "coordinates": [ -155.67369, 20.02367 ] } },
{ "type": "Feature", "properties": { "OBJECTID": 195, "NAME": "Mount Spokane State Park", "FCC": "D85", "SQMI": 70.67836, "ORIG_FID": 195 }, "geometry": { "type": "Point", "coordinates": [ -117.13854, 47.94481 ] } },
{ "type": "Feature", "properties": { "OBJECTID": 196, "NAME": "Paradise Point State Park", "FCC": "D85", "SQMI": 0.04183, "ORIG_FID": 196 }, "geometry": { "type": "Point", "coordinates": [ -122.70678, 45.86703 ] } },
{ "type": "Feature", "properties": { "OBJECTID": 197, "NAME": "Fort Union Trading Post NHS", "FCC": "D83", "SQMI": 0.69254, "ORIG_FID": 197 }, "geometry": { "type": "Point", "coordinates": [ -104.03701, 48.00071 ] } },
{ "type": "Feature", "properties": { "OBJECTID": 198, "NAME": "Paradise Point State Park", "FCC": "D85", "SQMI": 0.18964, "ORIG_FID": 198 }, "geometry": { "type": "Point", "coordinates": [ -122.69959, 45.86018 ] } },
{ "type": "Feature", "properties": { "OBJECTID": 199, "NAME": "Hapuna Beach Park", "FCC": "D85", "SQMI": 0.13231, "ORIG_FID": 199 }, "geometry": { "type": "Point", "coordinates": [ -155.82718, 19.98521 ] } },
{ "type": "Feature", "properties": { "OBJECTID": 200, "NAME": "Whipple Creek Park", "FCC": "D85", "SQMI": 1.64927, "ORIG_FID": 200 }, "geometry": { "type": "Point", "coordinates": [ -122.69534, 45.74047 ] } },
{ "type": "Feature", "properties": { "OBJECTID": 201, "NAME": "Spencer Beach County Park", "FCC": "D85", "SQMI": 0.78685, "ORIG_FID": 201 }, "geometry": { "type": "Point", "coordinates": [ -155.81967, 20.02171 ] } },
{ "type": "Feature", "properties": { "OBJECTID": 202, "NAME": "Fort Lincoln State Park", "FCC": "D85", "SQMI": 0.05314, "ORIG_FID": 202 }, "geometry": { "type": "Point", "coordinates": [ -102.63879, 45.9974 ] } },
{ "type": "Feature", "properties": { "OBJECTID": 203, "NAME": "Pend Oreille State Park", "FCC": "D85", "SQMI": 5.74906, "ORIG_FID": 203 }, "geometry": { "type": "Point", "coordinates": [ -117.33149, 48.09782 ] } },
{ "type": "Feature", "properties": { "OBJECTID": 204, "NAME": "Puukohola Heiau NHS", "FCC": "D83", "SQMI": 0.08942, "ORIG_FID": 204 }, "geometry": { "type": "Point", "coordinates": [ -155.82079, 20.0274 ] } },
{ "type": "Feature", "properties": { "OBJECTID": 205, "NAME": "Forest Park", "FCC": "D85", "SQMI": 12.00807, "ORIG_FID": 205 }, "geometry": { "type": "Point", "coordinates": [ -122.78826, 45.5855 ] } },
{ "type": "Feature", "properties": { "OBJECTID": 206, "NAME": "Honokaa County Park", "FCC": "D85", "SQMI": 0.03152, "ORIG_FID": 206 }, "geometry": { "type": "Point", "coordinates": [ -155.46739, 20.07476 ] } },
{ "type": "Feature", "properties": { "OBJECTID": 207, "NAME": "Fort Vancouver NHS", "FCC": "D83", "SQMI": 0.34382, "ORIG_FID": 207 }, "geometry": { "type": "Point", "coordinates": [ -122.66179, 45.62315 ] } },
{ "type": "Feature", "properties": { "OBJECTID": 208, "NAME": "Round Lake St Pk", "FCC": "D85", "SQMI": 24.26569, "ORIG_FID": 208 }, "geometry": { "type": "Point", "coordinates": [ -116.68768, 48.13252 ] } },
{ "type": "Feature", "properties": { "OBJECTID": 209, "NAME": "Fort Lincoln State Park", "FCC": "D85", "SQMI": 17.68218, "ORIG_FID": 209 }, "geometry": { "type": "Point", "coordinates": [ -101.26428, 47.43684 ] } },
{ "type": "Feature", "properties": { "OBJECTID": 210, "NAME": "Laupahoehoe Point Park", "FCC": "D85", "SQMI": 0.31392, "ORIG_FID": 210 }, "geometry": { "type": "Point", "coordinates": [ -155.25651, 20.00118 ] } },
{ "type": "Feature", "properties": { "OBJECTID": 211, "NAME": "Molalla River State Park", "FCC": "D85", "SQMI": 1.11114, "ORIG_FID": 211 }, "geometry": { "type": "Point", "coordinates": [ -122.70807, 45.28811 ] } },
{ "type": "Feature", "properties": { "OBJECTID": 212, "NAME": "Knife River Indian Villages NH", "FCC": "D83", "SQMI": 2.74654, "ORIG_FID": 212 }, "geometry": { "type": "Point", "coordinates": [ -101.38581, 47.35407 ] } },
{ "type": "Feature", "properties": { "OBJECTID": 213, "NAME": "Deer Creek Park", "FCC": "D85", "SQMI": 16.37322, "ORIG_FID": 213 }, "geometry": { "type": "Point", "coordinates": [ -123.41149, 45.1452 ] } },
{ "type": "Feature", "properties": { "OBJECTID": 214, "NAME": "Akaka Falls State Park", "FCC": "D85", "SQMI": 43.65617, "ORIG_FID": 214 }, "geometry": { "type": "Point", "coordinates": [ -155.20665, 19.83872 ] } },
{ "type": "Feature", "properties": { "OBJECTID": 215, "NAME": "Murray Park", "FCC": "D85", "SQMI": 0.00146, "ORIG_FID": 215 }, "geometry": { "type": "Point", "coordinates": [ -123.27898, 45.25486 ] } },
{ "type": "Feature", "properties": { "OBJECTID": 216, "NAME": "Mauna Kea Memorial Park", "FCC": "D85", "SQMI": 15.12553, "ORIG_FID": 216 }, "geometry": { "type": "Point", "coordinates": [ -155.17457, 19.80521 ] } },
{ "type": "Feature", "properties": { "OBJECTID": 217, "NAME": "Theodore Roosevelt NP", "FCC": "D83", "SQMI": 109.92883, "ORIG_FID": 217 }, "geometry": { "type": "Point", "coordinates": [ -103.42974, 47.17833 ] } },
{ "type": "Feature", "properties": { "OBJECTID": 218, "NAME": "Kaniksu NF", "FCC": "D84", "SQMI": 2976.93115, "ORIG_FID": 218 }, "geometry": { "type": "Point", "coordinates": [ -116.45554, 48.38725 ] } },
{ "type": "Feature", "properties": { "OBJECTID": 219, "NAME": "Yamhill Locks Park", "FCC": "D85", "SQMI": 0.55038, "ORIG_FID": 219 }, "geometry": { "type": "Point", "coordinates": [ -123.1005, 45.22786 ] } },
{ "type": "Feature", "properties": { "OBJECTID": 220, "NAME": "Edward Grenfell County Park", "FCC": "D85", "SQMI": 7.34521, "ORIG_FID": 220 }, "geometry": { "type": "Point", "coordinates": [ -123.27319, 45.21366 ] } },
{ "type": "Feature", "properties": { "OBJECTID": 221, "NAME": "Eagles Park", "FCC": "D85", "SQMI": 4.22581, "ORIG_FID": 221 }, "geometry": { "type": "Point", "coordinates": [ -100.90489, 46.94665 ] } },
{ "type": "Feature", "properties": { "OBJECTID": 222, "NAME": "Noatak NPRES", "FCC": "D83", "SQMI": 10264.22529, "ORIG_FID": 222 }, "geometry": { "type": "Point", "coordinates": [ -159.84023, 68.00989 ] } },
{ "type": "Feature", "properties": { "OBJECTID": 223, "NAME": "Wortman City Park", "FCC": "D85", "SQMI": 0.1453, "ORIG_FID": 223 }, "geometry": { "type": "Point", "coordinates": [ -123.17682, 45.22566 ] } },
{ "type": "Feature", "properties": { "OBJECTID": 224, "NAME": "Kootenai NF", "FCC": "D84", "SQMI": 3405.59456, "ORIG_FID": 224 }, "geometry": { "type": "Point", "coordinates": [ -115.4397, 48.53906 ] } },
{ "type": "Feature", "properties": { "OBJECTID": 225, "NAME": "Leapaldt Park", "FCC": "D85", "SQMI": 0.01043, "ORIG_FID": 225 }, "geometry": { "type": "Point", "coordinates": [ -98.69659, 46.92388 ] } },
{ "type": "Feature", "properties": { "OBJECTID": 226, "NAME": "Kiwanis Marine Park", "FCC": "D85", "SQMI": 0.31032, "ORIG_FID": 226 }, "geometry": { "type": "Point", "coordinates": [ -123.17848, 45.21038 ] } },
{ "type": "Feature", "properties": { "OBJECTID": 227, "NAME": "Gates of the Arctic NP & NPRES", "FCC": "D83", "SQMI": 13236.90579, "ORIG_FID": 227 }, "geometry": { "type": "Point", "coordinates": [ -153.29091, 67.75948 ] } },
{ "type": "Feature", "properties": { "OBJECTID": 228, "NAME": "Airport Park", "FCC": "D85", "SQMI": 0.14298, "ORIG_FID": 228 }, "geometry": { "type": "Point", "coordinates": [ -123.14562, 45.19919 ] } },
{ "type": "Feature", "properties": { "OBJECTID": 229, "NAME": "Cape Krusenstern NMON", "FCC": "D83", "SQMI": 1032.06912, "ORIG_FID": 229 }, "geometry": { "type": "Point", "coordinates": [ -163.49335, 67.40909 ] } },
{ "type": "Feature", "properties": { "OBJECTID": 230, "NAME": "Mc Elroy Park", "FCC": "D85", "SQMI": 0.19156, "ORIG_FID": 230 }, "geometry": { "type": "Point", "coordinates": [ -98.70228, 46.89435 ] } },
{ "type": "Feature", "properties": { "OBJECTID": 231, "NAME": "West Shore State Park", "FCC": "D85", "SQMI": 1.22126, "ORIG_FID": 231 }, "geometry": { "type": "Point", "coordinates": [ -114.17646, 47.92451 ] } },
{ "type": "Feature", "properties": { "OBJECTID": 232, "NAME": "Champoeg State Park", "FCC": "D85", "SQMI": 1.68438, "ORIG_FID": 232 }, "geometry": { "type": "Point", "coordinates": [ -122.88553, 45.25309 ] } },
{ "type": "Feature", "properties": { "OBJECTID": 233, "NAME": "Beaver Lake State Park", "FCC": "D85", "SQMI": 8.16502, "ORIG_FID": 233 }, "geometry": { "type": "Point", "coordinates": [ -99.61377, 46.40469 ] } },
{ "type": "Feature", "properties": { "OBJECTID": 234, "NAME": "San Salvador County Park", "FCC": "D85", "SQMI": 0.49082, "ORIG_FID": 234 }, "geometry": { "type": "Point", "coordinates": [ -123.01809, 45.21655 ] } },
{ "type": "Feature", "properties": { "OBJECTID": 235, "NAME": "Elmo State Park", "FCC": "D85", "SQMI": 4.27283, "ORIG_FID": 235 }, "geometry": { "type": "Point", "coordinates": [ -114.30355, 47.84938 ] } },
{ "type": "Feature", "properties": { "OBJECTID": 236, "NAME": "Jaquith Park", "FCC": "D85", "SQMI": 0.06289, "ORIG_FID": 236 }, "geometry": { "type": "Point", "coordinates": [ -122.976, 45.30952 ] } },
{ "type": "Feature", "properties": { "OBJECTID": 237, "NAME": "Streeter Memorial State Park", "FCC": "D85", "SQMI": 15.69869, "ORIG_FID": 237 }, "geometry": { "type": "Point", "coordinates": [ -99.50499, 46.76053 ] } },
{ "type": "Feature", "properties": { "OBJECTID": 238, "NAME": "Aniakchak NMON and NPRES", "FCC": "D83", "SQMI": 942.73119, "ORIG_FID": 238 }, "geometry": { "type": "Point", "coordinates": [ -157.81112, 56.87241 ] } },
{ "type": "Feature", "properties": { "OBJECTID": 239, "NAME": "Ponderosa Park", "FCC": "D85", "SQMI": 2.67412, "ORIG_FID": 239 }, "geometry": { "type": "Point", "coordinates": [ -115.15229, 48.90025 ] } },
{ "type": "Feature", "properties": { "OBJECTID": 240, "NAME": "Hoover Park", "FCC": "D85", "SQMI": 0.04679, "ORIG_FID": 240 }, "geometry": { "type": "Point", "coordinates": [ -122.96307, 45.29744 ] } },
{ "type": "Feature", "properties": { "OBJECTID": 241, "NAME": "Glacier NP", "FCC": "D83", "SQMI": 1574.65185, "ORIG_FID": 241 }, "geometry": { "type": "Point", "coordinates": [ -113.80087, 48.68431 ] } },
{ "type": "Feature", "properties": { "OBJECTID": 242, "NAME": "Bering Land Bridge NP", "FCC": "D83", "SQMI": 4353.23733, "ORIG_FID": 242 }, "geometry": { "type": "Point", "coordinates": [ -164.40846, 65.96065 ] } },
{ "type": "Feature", "properties": { "OBJECTID": 243, "NAME": "International Peace Garden", "FCC": "D83", "SQMI": 0.64405, "ORIG_FID": 243 }, "geometry": { "type": "Point", "coordinates": [ -100.06379, 48.99131 ] } },
{ "type": "Feature", "properties": { "OBJECTID": 244, "NAME": "Memorial Park", "FCC": "D85", "SQMI": 0.00659, "ORIG_FID": 244 }, "geometry": { "type": "Point", "coordinates": [ -122.97568, 45.29771 ] } },
{ "type": "Feature", "properties": { "OBJECTID": 245, "NAME": "Coal Creek SF", "FCC": "D85", "SQMI": 28.99903, "ORIG_FID": 245 }, "geometry": { "type": "Point", "coordinates": [ -114.30399, 48.66707 ] } },
{ "type": "Feature", "properties": { "OBJECTID": 246, "NAME": "Ewing Young Park", "FCC": "D85", "SQMI": 0.14923, "ORIG_FID": 246 }, "geometry": { "type": "Point", "coordinates": [ -122.9787, 45.29242 ] } },
{ "type": "Feature", "properties": { "OBJECTID": 247, "NAME": "International Peace Garden", "FCC": "D83", "SQMI": 1.33268, "ORIG_FID": 247 }, "geometry": { "type": "Point", "coordinates": [ -100.06308, 48.98918 ] } },
{ "type": "Feature", "properties": { "OBJECTID": 248, "NAME": "Kobuk Valley NP", "FCC": "D83", "SQMI": 2737.0932, "ORIG_FID": 248 }, "geometry": { "type": "Point", "coordinates": [ -159.19966, 67.35604 ] } },
{ "type": "Feature", "properties": { "OBJECTID": 249, "NAME": "Jewel Lake Park", "FCC": "D85", "SQMI": 0.07933, "ORIG_FID": 249 }, "geometry": { "type": "Point", "coordinates": [ -149.96345, 61.14149 ] } },
{ "type": "Feature", "properties": { "OBJECTID": 250, "NAME": "Murry Park", "FCC": "D85", "SQMI": 0.12078, "ORIG_FID": 250 }, "geometry": { "type": "Point", "coordinates": [ -123.40818, 47.00967 ] } },
{ "type": "Feature", "properties": { "OBJECTID": 251, "NAME": "Stillwater SF", "FCC": "D85", "SQMI": 141.77048, "ORIG_FID": 251 }, "geometry": { "type": "Point", "coordinates": [ -114.61457, 48.63049 ] } },
{ "type": "Feature", "properties": { "OBJECTID": 252, "NAME": "Turtle Mountain SF", "FCC": "D85", "SQMI": 12.63006, "ORIG_FID": 252 }, "geometry": { "type": "Point", "coordinates": [ -100.47653, 48.9628 ] } },
{ "type": "Feature", "properties": { "OBJECTID": 253, "NAME": "Willamette Greenway State Park", "FCC": "D85", "SQMI": 0.26479, "ORIG_FID": 253 }, "geometry": { "type": "Point", "coordinates": [ -122.89972, 45.26231 ] } },
{ "type": "Feature", "properties": { "OBJECTID": 254, "NAME": "County Fairgrounds", "FCC": "D85", "SQMI": 0.2758, "ORIG_FID": 254 }, "geometry": { "type": "Point", "coordinates": [ -123.37171, 47.01432 ] } },
{ "type": "Feature", "properties": { "OBJECTID": 255, "NAME": "Leistikow Memorial Park", "FCC": "D85", "SQMI": 1.44549, "ORIG_FID": 255 }, "geometry": { "type": "Point", "coordinates": [ -97.43592, 48.42825 ] } },
{ "type": "Feature", "properties": { "OBJECTID": 256, "NAME": "Washington County Fairgrounds", "FCC": "D85", "SQMI": 0.29636, "ORIG_FID": 256 }, "geometry": { "type": "Point", "coordinates": [ -122.94599, 45.52952 ] } },
{ "type": "Feature", "properties": { "OBJECTID": 257, "NAME": "Seward Waterfront Park", "FCC": "D85", "SQMI": 0.0938, "ORIG_FID": 257 }, "geometry": { "type": "Point", "coordinates": [ -149.43487, 60.10463 ] } },
{ "type": "Feature", "properties": { "OBJECTID": 258, "NAME": "Flathead NF", "FCC": "D84", "SQMI": 4109.89411, "ORIG_FID": 258 }, "geometry": { "type": "Point", "coordinates": [ -113.81223, 48.02922 ] } },
{ "type": "Feature", "properties": { "OBJECTID": 259, "NAME": "County Fairgrounds", "FCC": "D85", "SQMI": 1.32814, "ORIG_FID": 259 }, "geometry": { "type": "Point", "coordinates": [ -123.15173, 47.2387 ] } },
{ "type": "Feature", "properties": { "OBJECTID": 260, "NAME": "Chugach State Park", "FCC": "D85", "SQMI": 917.56686, "ORIG_FID": 260 }, "geometry": { "type": "Point", "coordinates": [ -149.17384, 61.15723 ] } },
{ "type": "Feature", "properties": { "OBJECTID": 261, "NAME": "Lake Bronson", "FCC": "D85", "SQMI": 4.64503, "ORIG_FID": 261 }, "geometry": { "type": "Point", "coordinates": [ -96.59363, 48.72677 ] } },
{ "type": "Feature", "properties": { "OBJECTID": 262, "NAME": "Shute Park", "FCC": "D85", "SQMI": 0.0826, "ORIG_FID": 262 }, "geometry": { "type": "Point", "coordinates": [ -122.97269, 45.51271 ] } },
{ "type": "Feature", "properties": { "OBJECTID": 263, "NAME": "Blodgett Park", "FCC": "D85", "SQMI": 0.34601, "ORIG_FID": 263 }, "geometry": { "type": "Point", "coordinates": [ -114.15788, 46.28708 ] } },
{ "type": "Feature", "properties": { "OBJECTID": 264, "NAME": "Edmonds Lake Park", "FCC": "D85", "SQMI": 5.738, "ORIG_FID": 264 }, "geometry": { "type": "Point", "coordinates": [ -149.43194, 61.43248 ] } },
{ "type": "Feature", "properties": { "OBJECTID": 265, "NAME": "Old Mill", "FCC": "D85", "SQMI": 0.63135, "ORIG_FID": 265 }, "geometry": { "type": "Point", "coordinates": [ -96.57339, 48.36359 ] } },
{ "type": "Feature", "properties": { "OBJECTID": 266, "NAME": "Callahan Park", "FCC": "D85", "SQMI": 0.03726, "ORIG_FID": 266 }, "geometry": { "type": "Point", "coordinates": [ -123.12657, 47.22069 ] } },
{ "type": "Feature", "properties": { "OBJECTID": 267, "NAME": "Big Hole NB", "FCC": "D83", "SQMI": 1.04878, "ORIG_FID": 267 }, "geometry": { "type": "Point", "coordinates": [ -113.65015, 45.64692 ] } },
{ "type": "Feature", "properties": { "OBJECTID": 268, "NAME": "Earthquake Park", "FCC": "D85", "SQMI": 0.21993, "ORIG_FID": 268 }, "geometry": { "type": "Point", "coordinates": [ -149.97682, 61.19725 ] } },
{ "type": "Feature", "properties": { "OBJECTID": 269, "NAME": "Macleay Park", "FCC": "D85", "SQMI": 0.43295, "ORIG_FID": 269 }, "geometry": { "type": "Point", "coordinates": [ -122.73013, 45.52386 ] } },
{ "type": "Feature", "properties": { "OBJECTID": 270, "NAME": "Johnson Park", "FCC": "D85", "SQMI": 0.00496, "ORIG_FID": 270 }, "geometry": { "type": "Point", "coordinates": [ -123.09543, 47.2191 ] } },
{ "type": "Feature", "properties": { "OBJECTID": 271, "NAME": "Fort Abercrombie State Park", "FCC": "D85", "SQMI": 0.20257, "ORIG_FID": 271 }, "geometry": { "type": "Point", "coordinates": [ -96.72081, 46.44512 ] } },
{ "type": "Feature", "properties": { "OBJECTID": 272, "NAME": "Denali NP and NPRES", "FCC": "D83", "SQMI": 9420.93538, "ORIG_FID": 272 }, "geometry": { "type": "Point", "coordinates": [ -151.05195, 63.29797 ] } },
{ "type": "Feature", "properties": { "OBJECTID": 273, "NAME": "Greenway Park", "FCC": "D85", "SQMI": 0.43979, "ORIG_FID": 273 }, "geometry": { "type": "Point", "coordinates": [ -122.79442, 45.45592 ] } },
{ "type": "Feature", "properties": { "OBJECTID": 274, "NAME": "Chahinkapa Park", "FCC": "D85", "SQMI": 0.05904, "ORIG_FID": 274 }, "geometry": { "type": "Point", "coordinates": [ -96.59965, 46.27047 ] } },
{ "type": "Feature", "properties": { "OBJECTID": 275, "NAME": "Brewer Park", "FCC": "D85", "SQMI": 0.00287, "ORIG_FID": 275 }, "geometry": { "type": "Point", "coordinates": [ -123.10175, 47.21417 ] } },
{ "type": "Feature", "properties": { "OBJECTID": 276, "NAME": "Golden Lake S W M A", "FCC": "D85", "SQMI": 8.05491, "ORIG_FID": 276 }, "geometry": { "type": "Point", "coordinates": [ -97.64908, 47.59002 ] } },
{ "type": "Feature", "properties": { "OBJECTID": 277, "NAME": "Katmai NP and NPRES", "FCC": "D83", "SQMI": 6394.81267, "ORIG_FID": 277 }, "geometry": { "type": "Point", "coordinates": [ -155.01296, 58.62315 ] } },
{ "type": "Feature", "properties": { "OBJECTID": 278, "NAME": "Kneeland Park", "FCC": "D85", "SQMI": 0.03955, "ORIG_FID": 278 }, "geometry": { "type": "Point", "coordinates": [ -123.10517, 47.20924 ] } },
{ "type": "Feature", "properties": { "OBJECTID": 279, "NAME": "Lake Clark NP and NPRES", "FCC": "D83", "SQMI": 6299.28349, "ORIG_FID": 279 }, "geometry": { "type": "Point", "coordinates": [ -153.55631, 60.57464 ] } },
{ "type": "Feature", "properties": { "OBJECTID": 280, "NAME": "Buffalo River", "FCC": "D85", "SQMI": 2.04363, "ORIG_FID": 280 }, "geometry": { "type": "Point", "coordinates": [ -96.46613, 46.86304 ] } },
{ "type": "Feature", "properties": { "OBJECTID": 281, "NAME": "Sula SF", "FCC": "D85", "SQMI": 22.731, "ORIG_FID": 281 }, "geometry": { "type": "Point", "coordinates": [ -113.95046, 45.87178 ] } },
{ "type": "Feature", "properties": { "OBJECTID": 282, "NAME": "Irving Park", "FCC": "D85", "SQMI": 0.03789, "ORIG_FID": 282 }, "geometry": { "type": "Point", "coordinates": [ -122.6563, 45.54669 ] } },
{ "type": "Feature", "properties": { "OBJECTID": 283, "NAME": "Maplewood", "FCC": "D85", "SQMI": 16.12322, "ORIG_FID": 283 }, "geometry": { "type": "Point", "coordinates": [ -95.95143, 46.51576 ] } },
{ "type": "Feature", "properties": { "OBJECTID": 284, "NAME": "Jacobys Shorescrest County Pk", "FCC": "D85", "SQMI": 0.05838, "ORIG_FID": 284 }, "geometry": { "type": "Point", "coordinates": [ -123.0624, 47.20811 ] } },
{ "type": "Feature", "properties": { "OBJECTID": 285, "NAME": "Us Grant Park", "FCC": "D85", "SQMI": 0.05017, "ORIG_FID": 285 }, "geometry": { "type": "Point", "coordinates": [ -122.62812, 45.53922 ] } },
{ "type": "Feature", "properties": { "OBJECTID": 286, "NAME": "Kenai Fjords NP", "FCC": "D83", "SQMI": 1049.4009, "ORIG_FID": 286 }, "geometry": { "type": "Point", "coordinates": [ -150.10634, 59.81766 ] } },
{ "type": "Feature", "properties": { "OBJECTID": 287, "NAME": "Bitterroot NF", "FCC": "D84", "SQMI": 2590.4723, "ORIG_FID": 287 }, "geometry": { "type": "Point", "coordinates": [ -114.2927, 45.92661 ] } },
{ "type": "Feature", "properties": { "OBJECTID": 288, "NAME": "Glendalough", "FCC": "D85", "SQMI": 4.07481, "ORIG_FID": 288 }, "geometry": { "type": "Point", "coordinates": [ -95.66535, 46.32862 ] } },
{ "type": "Feature", "properties": { "OBJECTID": 289, "NAME": "Tolmie State Park", "FCC": "D85", "SQMI": 5.02535, "ORIG_FID": 289 }, "geometry": { "type": "Point", "coordinates": [ -122.76507, 47.09947 ] } },
{ "type": "Feature", "properties": { "OBJECTID": 290, "NAME": "Tongass National Forest", "FCC": "D84", "SQMI": 30.73699, "ORIG_FID": 290 }, "geometry": { "type": "Point", "coordinates": [ -139.71135, 59.52359 ] } },
{ "type": "Feature", "properties": { "OBJECTID": 291, "NAME": "Clearwater NF", "FCC": "D84", "SQMI": 2699.69569, "ORIG_FID": 291 }, "geometry": { "type": "Point", "coordinates": [ -115.16142, 46.55247 ] } },
{ "type": "Feature", "properties": { "OBJECTID": 292, "NAME": "Pittock Acres Park", "FCC": "D85", "SQMI": 0.10433, "ORIG_FID": 292 }, "geometry": { "type": "Point", "coordinates": [ -122.71607, 45.52457 ] } },
{ "type": "Feature", "properties": { "OBJECTID": 293, "NAME": "Big Stone Lake", "FCC": "D85", "SQMI": 0.3108, "ORIG_FID": 293 }, "geometry": { "type": "Point", "coordinates": [ -96.71488, 45.45208 ] } },
{ "type": "Feature", "properties": { "OBJECTID": 294, "NAME": "Sitka NHP", "FCC": "D83", "SQMI": 0.16397, "ORIG_FID": 294 }, "geometry": { "type": "Point", "coordinates": [ -135.31454, 57.04676 ] } },
{ "type": "Feature", "properties": { "OBJECTID": 295, "NAME": "Millersylvania State Park", "FCC": "D85", "SQMI": 7.31834, "ORIG_FID": 295 }, "geometry": { "type": "Point", "coordinates": [ -122.89923, 46.92704 ] } },
{ "type": "Feature", "properties": { "OBJECTID": 296, "NAME": "Big Stone Lake", "FCC": "D85", "SQMI": 0.12379, "ORIG_FID": 296 }, "geometry": { "type": "Point", "coordinates": [ -96.69443, 45.42819 ] } },
{ "type": "Feature", "properties": { "OBJECTID": 297, "NAME": "Klondike Gold Rush NHP", "FCC": "D83", "SQMI": 20.71541, "ORIG_FID": 297 }, "geometry": { "type": "Point", "coordinates": [ -135.2613, 59.36019 ] } },
{ "type": "Feature", "properties": { "OBJECTID": 298, "NAME": "Washington Park", "FCC": "D85", "SQMI": 1.12886, "ORIG_FID": 298 }, "geometry": { "type": "Point", "coordinates": [ -122.70982, 45.51459 ] } },
{ "type": "Feature", "properties": { "OBJECTID": 299, "NAME": "Priest Point Park", "FCC": "D85", "SQMI": 0.56054, "ORIG_FID": 299 }, "geometry": { "type": "Point", "coordinates": [ -122.89368, 47.06866 ] } },
{ "type": "Feature", "properties": { "OBJECTID": 300, "NAME": "Salmon NF", "FCC": "D84", "SQMI": 2789.96419, "ORIG_FID": 300 }, "geometry": { "type": "Point", "coordinates": [ -114.15659, 45.11031 ] } },
{ "type": "Feature", "properties": { "OBJECTID": 301, "NAME": "Big Stone Lake", "FCC": "D85", "SQMI": 1.293, "ORIG_FID": 301 }, "geometry": { "type": "Point", "coordinates": [ -96.51556, 45.38418 ] } },
{ "type": "Feature", "properties": { "OBJECTID": 302, "NAME": "Yukon Charley Rivers NPRES", "FCC": "D83", "SQMI": 3939.53123, "ORIG_FID": 302 }, "geometry": { "type": "Point", "coordinates": [ -142.79572, 65.09326 ] } },
{ "type": "Feature", "properties": { "OBJECTID": 303, "NAME": "Lac Qui Parle", "FCC": "D85", "SQMI": 1.16969, "ORIG_FID": 303 }, "geometry": { "type": "Point", "coordinates": [ -95.89099, 45.02741 ] } },
{ "type": "Feature", "properties": { "OBJECTID": 304, "NAME": "Holman Park", "FCC": "D85", "SQMI": 0.0193, "ORIG_FID": 304 }, "geometry": { "type": "Point", "coordinates": [ -122.71765, 45.53656 ] } },
{ "type": "Feature", "properties": { "OBJECTID": 305, "NAME": "Flathead Lake State Park", "FCC": "D85", "SQMI": 0.47015, "ORIG_FID": 305 }, "geometry": { "type": "Point", "coordinates": [ -114.31568, 47.811 ] } },
{ "type": "Feature", "properties": { "OBJECTID": 306, "NAME": "Riverside Park", "FCC": "D85", "SQMI": 0.04898, "ORIG_FID": 306 }, "geometry": { "type": "Point", "coordinates": [ -122.97079, 46.72506 ] } },
{ "type": "Feature", "properties": { "OBJECTID": 307, "NAME": "Minnesota Corr Fac", "FCC": "D85", "SQMI": 0.26659, "ORIG_FID": 307 }, "geometry": { "type": "Point", "coordinates": [ -93.12812, 45.1783 ] } },
{ "type": "Feature", "properties": { "OBJECTID": 308, "NAME": "George Rogers Park", "FCC": "D85", "SQMI": 0.03144, "ORIG_FID": 308 }, "geometry": { "type": "Point", "coordinates": [ -122.66062, 45.41143 ] } },
{ "type": "Feature", "properties": { "OBJECTID": 309, "NAME": "Wrangell-St. Elias NP and NPRE", "FCC": "D83", "SQMI": 20607.47022, "ORIG_FID": 309 }, "geometry": { "type": "Point", "coordinates": [ -142.6029, 61.41756 ] } },
{ "type": "Feature", "properties": { "OBJECTID": 310, "NAME": "Swan River SF", "FCC": "D85", "SQMI": 85.04248, "ORIG_FID": 310 }, "geometry": { "type": "Point", "coordinates": [ -113.79975, 47.7771 ] } },
{ "type": "Feature", "properties": { "OBJECTID": 311, "NAME": "Sturgeon River SF", "FCC": "D85", "SQMI": 726.85955, "ORIG_FID": 311 }, "geometry": { "type": "Point", "coordinates": [ -93.15542, 47.72385 ] } },
{ "type": "Feature", "properties": { "OBJECTID": 312, "NAME": "Alexander Park", "FCC": "D85", "SQMI": 0.0486, "ORIG_FID": 312 }, "geometry": { "type": "Point", "coordinates": [ -122.9876, 46.65243 ] } },
{ "type": "Feature", "properties": { "OBJECTID": 313, "NAME": "Sellwood Park", "FCC": "D85", "SQMI": 0.02935, "ORIG_FID": 313 }, "geometry": { "type": "Point", "coordinates": [ -122.65991, 45.46724 ] } },
{ "type": "Feature", "properties": { "OBJECTID": 314, "NAME": "Thompson River SF", "FCC": "D85", "SQMI": 116.61718, "ORIG_FID": 314 }, "geometry": { "type": "Point", "coordinates": [ -114.98151, 47.67034 ] } },
{ "type": "Feature", "properties": { "OBJECTID": 315, "NAME": "Stan Hedwall Park", "FCC": "D85", "SQMI": 0.31445, "ORIG_FID": 315 }, "geometry": { "type": "Point", "coordinates": [ -122.9656, 46.64364 ] } },
{ "type": "Feature", "properties": { "OBJECTID": 316, "NAME": "Lake Carlos", "FCC": "D85", "SQMI": 2.01838, "ORIG_FID": 316 }, "geometry": { "type": "Point", "coordinates": [ -95.34342, 45.99647 ] } },
{ "type": "Feature", "properties": { "OBJECTID": 317, "NAME": "Woods Memorial Park", "FCC": "D85", "SQMI": 0.07664, "ORIG_FID": 317 }, "geometry": { "type": "Point", "coordinates": [ -122.72323, 45.45728 ] } },
{ "type": "Feature", "properties": { "OBJECTID": 318, "NAME": "Glacier Bay NP and NPRES", "FCC": "D83", "SQMI": 4194.44643, "ORIG_FID": 318 }, "geometry": { "type": "Point", "coordinates": [ -136.88631, 58.84409 ] } },
{ "type": "Feature", "properties": { "OBJECTID": 319, "NAME": "Glacial Lakes", "FCC": "D85", "SQMI": 3.84281, "ORIG_FID": 319 }, "geometry": { "type": "Point", "coordinates": [ -95.50528, 45.53199 ] } },
{ "type": "Feature", "properties": { "OBJECTID": 320, "NAME": "Tillicum Park", "FCC": "D85", "SQMI": 0.1428, "ORIG_FID": 320 }, "geometry": { "type": "Point", "coordinates": [ -124.37988, 47.9555 ] } },
{ "type": "Feature", "properties": { "OBJECTID": 321, "NAME": "Peter Kern Park", "FCC": "D85", "SQMI": 0.10674, "ORIG_FID": 321 }, "geometry": { "type": "Point", "coordinates": [ -122.65238, 45.4383 ] } },
{ "type": "Feature", "properties": { "OBJECTID": 322, "NAME": "Lolo NF", "FCC": "D84", "SQMI": 3990.40308, "ORIG_FID": 322 }, "geometry": { "type": "Point", "coordinates": [ -114.46006, 47.15843 ] } },
{ "type": "Feature", "properties": { "OBJECTID": 323, "NAME": "Bogachiel State Park", "FCC": "D85", "SQMI": 32.00221, "ORIG_FID": 323 }, "geometry": { "type": "Point", "coordinates": [ -124.3138, 47.91996 ] } },
{ "type": "Feature", "properties": { "OBJECTID": 324, "NAME": "Jackson Court House St Park", "FCC": "D85", "SQMI": 0.38576, "ORIG_FID": 324 }, "geometry": { "type": "Point", "coordinates": [ -122.81476, 46.54028 ] } },
{ "type": "Feature", "properties": { "OBJECTID": 325, "NAME": "Sibley", "FCC": "D85", "SQMI": 5.04976, "ORIG_FID": 325 }, "geometry": { "type": "Point", "coordinates": [ -95.04938, 45.32235 ] } },
{ "type": "Feature", "properties": { "OBJECTID": 326, "NAME": "Clearwater SF", "FCC": "D85", "SQMI": 133.66715, "ORIG_FID": 326 }, "geometry": { "type": "Point", "coordinates": [ -113.4276, 46.95686 ] } },
{ "type": "Feature", "properties": { "OBJECTID": 327, "NAME": "Settlemier Park", "FCC": "D85", "SQMI": 0.03371, "ORIG_FID": 327 }, "geometry": { "type": "Point", "coordinates": [ -122.86218, 45.13997 ] } },
{ "type": "Feature", "properties": { "OBJECTID": 328, "NAME": "Monson Lake", "FCC": "D85", "SQMI": 0.33073, "ORIG_FID": 328 }, "geometry": { "type": "Point", "coordinates": [ -95.27098, 45.32294 ] } },
{ "type": "Feature", "properties": { "OBJECTID": 329, "NAME": "Olympic NP", "FCC": "D83", "SQMI": 1428.38379, "ORIG_FID": 329 }, "geometry": { "type": "Point", "coordinates": [ -123.66398, 47.80302 ] } },
{ "type": "Feature", "properties": { "OBJECTID": 330, "NAME": "Willamette Mission State Park", "FCC": "D85", "SQMI": 7.72539, "ORIG_FID": 330 }, "geometry": { "type": "Point", "coordinates": [ -123.02829, 45.06523 ] } },
{ "type": "Feature", "properties": { "OBJECTID": 331, "NAME": "Lincoln SF", "FCC": "D85", "SQMI": 71.44152, "ORIG_FID": 331 }, "geometry": { "type": "Point", "coordinates": [ -112.66768, 46.94268 ] } },
{ "type": "Feature", "properties": { "OBJECTID": 332, "NAME": "Winolequa Memorial Park", "FCC": "D85", "SQMI": 0.17313, "ORIG_FID": 332 }, "geometry": { "type": "Point", "coordinates": [ -122.92364, 46.50252 ] } },
{ "type": "Feature", "properties": { "OBJECTID": 333, "NAME": "Fisher Memorial Park", "FCC": "D85", "SQMI": 0.07462, "ORIG_FID": 333 }, "geometry": { "type": "Point", "coordinates": [ -122.80424, 45.06455 ] } },
{ "type": "Feature", "properties": { "OBJECTID": 334, "NAME": "Father Sheehan Park", "FCC": "D85", "SQMI": 0.07193, "ORIG_FID": 334 }, "geometry": { "type": "Point", "coordinates": [ -112.50299, 45.98274 ] } },
{ "type": "Feature", "properties": { "OBJECTID": 335, "NAME": "Mill Creek Park", "FCC": "D85", "SQMI": 0.36991, "ORIG_FID": 335 }, "geometry": { "type": "Point", "coordinates": [ -123.76852, 46.94744 ] } },
{ "type": "Feature", "properties": { "OBJECTID": 336, "NAME": "Crow Wing", "FCC": "D85", "SQMI": 3.63804, "ORIG_FID": 336 }, "geometry": { "type": "Point", "coordinates": [ -94.3377, 46.27447 ] } },
{ "type": "Feature", "properties": { "OBJECTID": 337, "NAME": "Kilchis County Park", "FCC": "D85", "SQMI": 45.6602, "ORIG_FID": 337 }, "geometry": { "type": "Point", "coordinates": [ -123.78774, 45.59005 ] } },
{ "type": "Feature", "properties": { "OBJECTID": 338, "NAME": "Rainbow Falls State Park", "FCC": "D85", "SQMI": 0.78079, "ORIG_FID": 338 }, "geometry": { "type": "Point", "coordinates": [ -123.22003, 46.63275 ] } },
{ "type": "Feature", "properties": { "OBJECTID": 339, "NAME": "Stodden Park", "FCC": "D85", "SQMI": 0.21381, "ORIG_FID": 339 }, "geometry": { "type": "Point", "coordinates": [ -112.52313, 45.97931 ] } },
{ "type": "Feature", "properties": { "OBJECTID": 340, "NAME": "Barview Jetty County Park", "FCC": "D85", "SQMI": 0.32657, "ORIG_FID": 340 }, "geometry": { "type": "Point", "coordinates": [ -123.9514, 45.57554 ] } },
{ "type": "Feature", "properties": { "OBJECTID": 341, "NAME": "Olympic NF", "FCC": "D84", "SQMI": 1088.94018, "ORIG_FID": 341 }, "geometry": { "type": "Point", "coordinates": [ -123.56001, 47.69362 ] } },
{ "type": "Feature", "properties": { "OBJECTID": 342, "NAME": "Grant-Kohrs Ranch NHS", "FCC": "D83", "SQMI": 2.50138, "ORIG_FID": 342 }, "geometry": { "type": "Point", "coordinates": [ -112.74648, 46.41328 ] } },
{ "type": "Feature", "properties": { "OBJECTID": 343, "NAME": "Badoura SF", "FCC": "D85", "SQMI": 24.32332, "ORIG_FID": 343 }, "geometry": { "type": "Point", "coordinates": [ -94.72822, 46.86088 ] } },
{ "type": "Feature", "properties": { "OBJECTID": 344, "NAME": "Cape Lookout State Park", "FCC": "D85", "SQMI": 7.45548, "ORIG_FID": 344 }, "geometry": { "type": "Point", "coordinates": [ -123.9547, 45.355 ] } },
{ "type": "Feature", "properties": { "OBJECTID": 345, "NAME": "Lewis and Clark St Park", "FCC": "D85", "SQMI": 5.50775, "ORIG_FID": 345 }, "geometry": { "type": "Point", "coordinates": [ -122.82839, 46.52998 ] } },
{ "type": "Feature", "properties": { "OBJECTID": 346, "NAME": "John W Vessey Mem Ball Park", "FCC": "D85", "SQMI": 0.03157, "ORIG_FID": 346 }, "geometry": { "type": "Point", "coordinates": [ -123.58754, 46.98193 ] } },
{ "type": "Feature", "properties": { "OBJECTID": 347, "NAME": "Nestucca Spit State Park", "FCC": "D85", "SQMI": 1.01301, "ORIG_FID": 347 }, "geometry": { "type": "Point", "coordinates": [ -123.96499, 45.18434 ] } },
{ "type": "Feature", "properties": { "OBJECTID": 348, "NAME": "Lake Sylvia State Park", "FCC": "D85", "SQMI": 14.05879, "ORIG_FID": 348 }, "geometry": { "type": "Point", "coordinates": [ -123.56054, 47.01513 ] } },
{ "type": "Feature", "properties": { "OBJECTID": 349, "NAME": "Beaverhead NF", "FCC": "D84", "SQMI": 3510.58656, "ORIG_FID": 349 }, "geometry": { "type": "Point", "coordinates": [ -112.73414, 45.26718 ] } },
{ "type": "Feature", "properties": { "OBJECTID": 350, "NAME": "Kitsap Memorial State Park", "FCC": "D85", "SQMI": 2.79898, "ORIG_FID": 350 }, "geometry": { "type": "Point", "coordinates": [ -122.64191, 47.78863 ] } },
{ "type": "Feature", "properties": { "OBJECTID": 351, "NAME": "Cape Meares State Park", "FCC": "D85", "SQMI": 3.77699, "ORIG_FID": 351 }, "geometry": { "type": "Point", "coordinates": [ -123.95338, 45.51213 ] } },
{ "type": "Feature", "properties": { "OBJECTID": 352, "NAME": "Foothills SF", "FCC": "D85", "SQMI": 73.83067, "ORIG_FID": 352 }, "geometry": { "type": "Point", "coordinates": [ -94.62783, 46.76008 ] } },
{ "type": "Feature", "properties": { "OBJECTID": 353, "NAME": "Deerlodge NF", "FCC": "D84", "SQMI": 2122.28596, "ORIG_FID": 353 }, "geometry": { "type": "Point", "coordinates": [ -112.8361, 46.14421 ] } },
{ "type": "Feature", "properties": { "OBJECTID": 354, "NAME": "Fort Borst Park", "FCC": "D85", "SQMI": 0.18609, "ORIG_FID": 354 }, "geometry": { "type": "Point", "coordinates": [ -122.98085, 46.72339 ] } },
{ "type": "Feature", "properties": { "OBJECTID": 355, "NAME": "Belfair State Park", "FCC": "D85", "SQMI": 0.0674, "ORIG_FID": 355 }, "geometry": { "type": "Point", "coordinates": [ -122.87601, 47.43041 ] } },
{ "type": "Feature", "properties": { "OBJECTID": 356, "NAME": "Savanna SF", "FCC": "D85", "SQMI": 340.05203, "ORIG_FID": 356 }, "geometry": { "type": "Point", "coordinates": [ -93.22102, 46.86001 ] } },
{ "type": "Feature", "properties": { "OBJECTID": 357, "NAME": "Astoria Column", "FCC": "D85", "SQMI": 1.22736, "ORIG_FID": 357 }, "geometry": { "type": "Point", "coordinates": [ -123.80233, 46.184 ] } },
{ "type": "Feature", "properties": { "OBJECTID": 358, "NAME": "Hoodsport Trail State Park", "FCC": "D85", "SQMI": 5.26674, "ORIG_FID": 358 }, "geometry": { "type": "Point", "coordinates": [ -123.16932, 47.44072 ] } },
{ "type": "Feature", "properties": { "OBJECTID": 359, "NAME": "Huntersville SF", "FCC": "D85", "SQMI": 53.86952, "ORIG_FID": 359 }, "geometry": { "type": "Point", "coordinates": [ -94.87509, 46.76261 ] } },
{ "type": "Feature", "properties": { "OBJECTID": 360, "NAME": "Snake River SF", "FCC": "D85", "SQMI": 15.02061, "ORIG_FID": 360 }, "geometry": { "type": "Point", "coordinates": [ -93.18562, 46.10338 ] } },
{ "type": "Feature", "properties": { "OBJECTID": 361, "NAME": "Mc Fadden Park", "FCC": "D85", "SQMI": 0.53772, "ORIG_FID": 361 }, "geometry": { "type": "Point", "coordinates": [ -122.95823, 46.66458 ] } },
{ "type": "Feature", "properties": { "OBJECTID": 362, "NAME": "Gallatin NF", "FCC": "D84", "SQMI": 3360.85865, "ORIG_FID": 362 }, "geometry": { "type": "Point", "coordinates": [ -110.73389, 45.34288 ] } },
{ "type": "Feature", "properties": { "OBJECTID": 363, "NAME": "Lake Cushman State Park", "FCC": "D85", "SQMI": 12.00855, "ORIG_FID": 363 }, "geometry": { "type": "Point", "coordinates": [ -123.19287, 47.47546 ] } },
{ "type": "Feature", "properties": { "OBJECTID": 364, "NAME": "Shively Park", "FCC": "D85", "SQMI": 0.37736, "ORIG_FID": 364 }, "geometry": { "type": "Point", "coordinates": [ -123.82702, 46.17595 ] } },
{ "type": "Feature", "properties": { "OBJECTID": 365, "NAME": "Lyons SF", "FCC": "D85", "SQMI": 22.60622, "ORIG_FID": 365 }, "geometry": { "type": "Point", "coordinates": [ -94.86715, 46.54561 ] } },
{ "type": "Feature", "properties": { "OBJECTID": 366, "NAME": "Richmond Beach Park", "FCC": "D85", "SQMI": 0.07638, "ORIG_FID": 366 }, "geometry": { "type": "Point", "coordinates": [ -122.38463, 47.7654 ] } },
{ "type": "Feature", "properties": { "OBJECTID": 367, "NAME": "Solana SF", "FCC": "D85", "SQMI": 107.00874, "ORIG_FID": 367 }, "geometry": { "type": "Point", "coordinates": [ -93.19157, 46.33861 ] } },
{ "type": "Feature", "properties": { "OBJECTID": 368, "NAME": "Helena NF", "FCC": "D84", "SQMI": 1803.33035, "ORIG_FID": 368 }, "geometry": { "type": "Point", "coordinates": [ -112.02784, 46.69059 ] } },
{ "type": "Feature", "properties": { "OBJECTID": 369, "NAME": "Twanoh State Park", "FCC": "D85", "SQMI": 6.01332, "ORIG_FID": 369 }, "geometry": { "type": "Point", "coordinates": [ -122.97869, 47.36238 ] } },
{ "type": "Feature", "properties": { "OBJECTID": 370, "NAME": "Twin Falls State Park", "FCC": "D85", "SQMI": 35.80938, "ORIG_FID": 370 }, "geometry": { "type": "Point", "coordinates": [ -121.63497, 47.40292 ] } },
{ "type": "Feature", "properties": { "OBJECTID": 371, "NAME": "Pillsbury SF", "FCC": "D85", "SQMI": 25.11068, "ORIG_FID": 371 }, "geometry": { "type": "Point", "coordinates": [ -94.42576, 46.41278 ] } },
{ "type": "Feature", "properties": { "OBJECTID": 372, "NAME": "Tapiola Park", "FCC": "D85", "SQMI": 0.04193, "ORIG_FID": 372 }, "geometry": { "type": "Point", "coordinates": [ -123.8497, 46.17691 ] } },
{ "type": "Feature", "properties": { "OBJECTID": 373, "NAME": "Dosewallips State Park", "FCC": "D85", "SQMI": 3.70077, "ORIG_FID": 373 }, "geometry": { "type": "Point", "coordinates": [ -122.91849, 47.67809 ] } },
{ "type": "Feature", "properties": { "OBJECTID": 374, "NAME": "Voyageurs NP", "FCC": "D83", "SQMI": 319.82171, "ORIG_FID": 374 }, "geometry": { "type": "Point", "coordinates": [ -92.83742, 48.48343 ] } },
{ "type": "Feature", "properties": { "OBJECTID": 375, "NAME": "Lewis and Clark NF", "FCC": "D84", "SQMI": 3111.88037, "ORIG_FID": 375 }, "geometry": { "type": "Point", "coordinates": [ -111.47732, 47.19895 ] } },
{ "type": "Feature", "properties": { "OBJECTID": 376, "NAME": "Mountainview Memorial Park", "FCC": "D85", "SQMI": 0.54307, "ORIG_FID": 376 }, "geometry": { "type": "Point", "coordinates": [ -122.49519, 47.182 ] } },
{ "type": "Feature", "properties": { "OBJECTID": 377, "NAME": "Warrenton City Park", "FCC": "D85", "SQMI": 0.10126, "ORIG_FID": 377 }, "geometry": { "type": "Point", "coordinates": [ -123.93047, 46.16174 ] } },
{ "type": "Feature", "properties": { "OBJECTID": 378, "NAME": "Potlatch State Park", "FCC": "D85", "SQMI": 1.02902, "ORIG_FID": 378 }, "geometry": { "type": "Point", "coordinates": [ -123.16828, 47.35996 ] } },
{ "type": "Feature", "properties": { "OBJECTID": 379, "NAME": "Charles A. Lindbergh", "FCC": "D85", "SQMI": 0.50361, "ORIG_FID": 379 }, "geometry": { "type": "Point", "coordinates": [ -94.39442, 45.95866 ] } },
{ "type": "Feature", "properties": { "OBJECTID": 380, "NAME": "Zipple Bay", "FCC": "D85", "SQMI": 4.80117, "ORIG_FID": 380 }, "geometry": { "type": "Point", "coordinates": [ -94.86165, 48.86383 ] } },
{ "type": "Feature", "properties": { "OBJECTID": 381, "NAME": "Cullaby Lake County Park", "FCC": "D85", "SQMI": 0.44619, "ORIG_FID": 381 }, "geometry": { "type": "Point", "coordinates": [ -123.91172, 46.08493 ] } },
{ "type": "Feature", "properties": { "OBJECTID": 382, "NAME": "Nisqually Park", "FCC": "D85", "SQMI": 0.03205, "ORIG_FID": 382 }, "geometry": { "type": "Point", "coordinates": [ -121.92052, 46.74097 ] } },
{ "type": "Feature", "properties": { "OBJECTID": 383, "NAME": "Finland SF", "FCC": "D85", "SQMI": 494.64927, "ORIG_FID": 383 }, "geometry": { "type": "Point", "coordinates": [ -91.42261, 47.5087 ] } },
{ "type": "Feature", "properties": { "OBJECTID": 384, "NAME": "Ecola State Park", "FCC": "D85", "SQMI": 4.15373, "ORIG_FID": 384 }, "geometry": { "type": "Point", "coordinates": [ -123.96698, 45.94379 ] } },
{ "type": "Feature", "properties": { "OBJECTID": 385, "NAME": "Rimrock County Park", "FCC": "D85", "SQMI": 0.00012, "ORIG_FID": 385 }, "geometry": { "type": "Point", "coordinates": [ -122.26465, 46.87118 ] } },
{ "type": "Feature", "properties": { "OBJECTID": 386, "NAME": "Schafer State Park", "FCC": "D85", "SQMI": 21.65421, "ORIG_FID": 386 }, "geometry": { "type": "Point", "coordinates": [ -123.40453, 47.12732 ] } },
{ "type": "Feature", "properties": { "OBJECTID": 387, "NAME": "Hayes Lake", "FCC": "D85", "SQMI": 4.6328, "ORIG_FID": 387 }, "geometry": { "type": "Point", "coordinates": [ -95.53462, 48.6285 ] } },
{ "type": "Feature", "properties": { "OBJECTID": 388, "NAME": "Birch Lake SF", "FCC": "D85", "SQMI": 0.97672, "ORIG_FID": 388 }, "geometry": { "type": "Point", "coordinates": [ -94.7772, 45.76542 ] } },
{ "type": "Feature", "properties": { "OBJECTID": 389, "NAME": "Lake Isabelle SF", "FCC": "D85", "SQMI": 0.96826, "ORIG_FID": 389 }, "geometry": { "type": "Point", "coordinates": [ -91.2836, 47.80906 ] } },
{ "type": "Feature", "properties": { "OBJECTID": 390, "NAME": "Hug Point State Park", "FCC": "D85", "SQMI": 0.20254, "ORIG_FID": 390 }, "geometry": { "type": "Point", "coordinates": [ -123.96094, 45.83293 ] } },
{ "type": "Feature", "properties": { "OBJECTID": 391, "NAME": "Franz Jevne", "FCC": "D85", "SQMI": 0.14867, "ORIG_FID": 391 }, "geometry": { "type": "Point", "coordinates": [ -94.07044, 48.64297 ] } },
{ "type": "Feature", "properties": { "OBJECTID": 392, "NAME": "Cascade River", "FCC": "D85", "SQMI": 1.1768, "ORIG_FID": 392 }, "geometry": { "type": "Point", "coordinates": [ -90.43196, 47.73629 ] } },
{ "type": "Feature", "properties": { "OBJECTID": 393, "NAME": "Itasca", "FCC": "D85", "SQMI": 52.02222, "ORIG_FID": 393 }, "geometry": { "type": "Point", "coordinates": [ -95.22147, 47.18961 ] } },
{ "type": "Feature", "properties": { "OBJECTID": 394, "NAME": "Ike Kinswa State Park", "FCC": "D85", "SQMI": 12.26773, "ORIG_FID": 394 }, "geometry": { "type": "Point", "coordinates": [ -122.5249, 46.5737 ] } },
{ "type": "Feature", "properties": { "OBJECTID": 395, "NAME": "Capitol SF", "FCC": "D85", "SQMI": 119.10904, "ORIG_FID": 395 }, "geometry": { "type": "Point", "coordinates": [ -123.16413, 46.96072 ] } },
{ "type": "Feature", "properties": { "OBJECTID": 396, "NAME": "Lewisville County Park", "FCC": "D85", "SQMI": 3.48324, "ORIG_FID": 396 }, "geometry": { "type": "Point", "coordinates": [ -122.53773, 45.81594 ] } },
{ "type": "Feature", "properties": { "OBJECTID": 397, "NAME": "Cascade River", "FCC": "D85", "SQMI": 0.4406, "ORIG_FID": 397 }, "geometry": { "type": "Point", "coordinates": [ -90.47962, 47.72069 ] } },
{ "type": "Feature", "properties": { "OBJECTID": 398, "NAME": "Beltrami Island SF", "FCC": "D85", "SQMI": 1048.00485, "ORIG_FID": 398 }, "geometry": { "type": "Point", "coordinates": [ -95.14465, 48.51698 ] } },
{ "type": "Feature", "properties": { "OBJECTID": 399, "NAME": "Wormald State Park", "FCC": "D85", "SQMI": 4.75786, "ORIG_FID": 399 }, "geometry": { "type": "Point", "coordinates": [ -122.29413, 45.80681 ] } },
{ "type": "Feature", "properties": { "OBJECTID": 400, "NAME": "Harry Todd Park", "FCC": "D85", "SQMI": 0.06961, "ORIG_FID": 400 }, "geometry": { "type": "Point", "coordinates": [ -122.55594, 47.12704 ] } },
{ "type": "Feature", "properties": { "OBJECTID": 401, "NAME": "Mississippi Headwaters SF", "FCC": "D85", "SQMI": 72.81977, "ORIG_FID": 401 }, "geometry": { "type": "Point", "coordinates": [ -95.09782, 47.43635 ] } },
{ "type": "Feature", "properties": { "OBJECTID": 402, "NAME": "Daybreak Park", "FCC": "D85", "SQMI": 0.24642, "ORIG_FID": 402 }, "geometry": { "type": "Point", "coordinates": [ -122.5835, 45.81032 ] } },
{ "type": "Feature", "properties": { "OBJECTID": 403, "NAME": "Koochiching SF", "FCC": "D85", "SQMI": 553.35277, "ORIG_FID": 403 }, "geometry": { "type": "Point", "coordinates": [ -93.54233, 48.06302 ] } },
{ "type": "Feature", "properties": { "OBJECTID": 404, "NAME": "Fort Steilacoom Park", "FCC": "D85", "SQMI": 0.94824, "ORIG_FID": 404 }, "geometry": { "type": "Point", "coordinates": [ -122.56187, 47.17388 ] } },
{ "type": "Feature", "properties": { "OBJECTID": 405, "NAME": "Lechtenberg Park", "FCC": "D85", "SQMI": 0.53846, "ORIG_FID": 405 }, "geometry": { "type": "Point", "coordinates": [ -122.46299, 45.64503 ] } },
{ "type": "Feature", "properties": { "OBJECTID": 406, "NAME": "Smokey Hills SF", "FCC": "D85", "SQMI": 39.26883, "ORIG_FID": 406 }, "geometry": { "type": "Point", "coordinates": [ -95.34493, 46.90278 ] } },
{ "type": "Feature", "properties": { "OBJECTID": 407, "NAME": "Titlow Park", "FCC": "D85", "SQMI": 0.24267, "ORIG_FID": 407 }, "geometry": { "type": "Point", "coordinates": [ -122.54903, 47.25341 ] } },
{ "type": "Feature", "properties": { "OBJECTID": 408, "NAME": "Northwest Angle SF", "FCC": "D85", "SQMI": 226.87741, "ORIG_FID": 408 }, "geometry": { "type": "Point", "coordinates": [ -95.0064, 49.24503 ] } },
{ "type": "Feature", "properties": { "OBJECTID": 409, "NAME": "Wintler Park", "FCC": "D85", "SQMI": 0.04738, "ORIG_FID": 409 }, "geometry": { "type": "Point", "coordinates": [ -122.60135, 45.61001 ] } },
{ "type": "Feature", "properties": { "OBJECTID": 410, "NAME": "Two Inlets SF", "FCC": "D85", "SQMI": 42.22049, "ORIG_FID": 410 }, "geometry": { "type": "Point", "coordinates": [ -95.23928, 47.02412 ] } },
{ "type": "Feature", "properties": { "OBJECTID": 411, "NAME": "Point Defiance Park", "FCC": "D85", "SQMI": 1.14316, "ORIG_FID": 411 }, "geometry": { "type": "Point", "coordinates": [ -122.53041, 47.30801 ] } },
{ "type": "Feature", "properties": { "OBJECTID": 412, "NAME": "Pine Island SF", "FCC": "D85", "SQMI": 1368.40347, "ORIG_FID": 412 }, "geometry": { "type": "Point", "coordinates": [ -94.11167, 48.21859 ] } },
{ "type": "Feature", "properties": { "OBJECTID": 413, "NAME": "Battle Ground Lake State Park", "FCC": "D85", "SQMI": 1.22388, "ORIG_FID": 413 }, "geometry": { "type": "Point", "coordinates": [ -122.50561, 45.805 ] } },
{ "type": "Feature", "properties": { "OBJECTID": 414, "NAME": "White Earth SF", "FCC": "D85", "SQMI": 243.76045, "ORIG_FID": 414 }, "geometry": { "type": "Point", "coordinates": [ -95.50241, 47.21156 ] } },
{ "type": "Feature", "properties": { "OBJECTID": 415, "NAME": "Cascade River", "FCC": "D85", "SQMI": 2.83461, "ORIG_FID": 415 }, "geometry": { "type": "Point", "coordinates": [ -90.55281, 47.698 ] } },
{ "type": "Feature", "properties": { "OBJECTID": 416, "NAME": "Narrows Bridge Memorial Park", "FCC": "D85", "SQMI": 0.46586, "ORIG_FID": 416 }, "geometry": { "type": "Point", "coordinates": [ -122.53873, 47.26398 ] } },
{ "type": "Feature", "properties": { "OBJECTID": 417, "NAME": "Red Lake SF", "FCC": "D85", "SQMI": 108.22006, "ORIG_FID": 417 }, "geometry": { "type": "Point", "coordinates": [ -94.51678, 48.06814 ] } },
{ "type": "Feature", "properties": { "OBJECTID": 418, "NAME": "Orchards Park", "FCC": "D85", "SQMI": 0.93843, "ORIG_FID": 418 }, "geometry": { "type": "Point", "coordinates": [ -122.58516, 45.66231 ] } },
{ "type": "Feature", "properties": { "OBJECTID": 419, "NAME": "Tourist Park", "FCC": "D85", "SQMI": 0.01152, "ORIG_FID": 419 }, "geometry": { "type": "Point", "coordinates": [ -90.18375, 46.46408 ] } },
{ "type": "Feature", "properties": { "OBJECTID": 420, "NAME": "Lake Bemidji", "FCC": "D85", "SQMI": 2.69649, "ORIG_FID": 420 }, "geometry": { "type": "Point", "coordinates": [ -94.81461, 47.54109 ] } },
{ "type": "Feature", "properties": { "OBJECTID": 421, "NAME": "Marine Park", "FCC": "D85", "SQMI": 0.07625, "ORIG_FID": 421 }, "geometry": { "type": "Point", "coordinates": [ -122.48945, 47.2881 ] } },
{ "type": "Feature", "properties": { "OBJECTID": 422, "NAME": "Smokey Bear SF", "FCC": "D85", "SQMI": 18.47794, "ORIG_FID": 422 }, "geometry": { "type": "Point", "coordinates": [ -93.672, 48.45874 ] } },
{ "type": "Feature", "properties": { "OBJECTID": 423, "NAME": "Cascade Locks Marine Park", "FCC": "D85", "SQMI": 0.2017, "ORIG_FID": 423 }, "geometry": { "type": "Point", "coordinates": [ -121.87974, 45.67597 ] } },
{ "type": "Feature", "properties": { "OBJECTID": 424, "NAME": "Norrie Park", "FCC": "D85", "SQMI": 1.84405, "ORIG_FID": 424 }, "geometry": { "type": "Point", "coordinates": [ -90.14532, 46.40755 ] } },
{ "type": "Feature", "properties": { "OBJECTID": 425, "NAME": "Lake Bemidji", "FCC": "D85", "SQMI": 0.07335, "ORIG_FID": 425 }, "geometry": { "type": "Point", "coordinates": [ -94.83913, 47.47913 ] } },
{ "type": "Feature", "properties": { "OBJECTID": 426, "NAME": "Judge C.R. Magney", "FCC": "D85", "SQMI": 6.86039, "ORIG_FID": 426 }, "geometry": { "type": "Point", "coordinates": [ -90.06558, 47.8554 ] } },
{ "type": "Feature", "properties": { "OBJECTID": 427, "NAME": "Puget Park", "FCC": "D85", "SQMI": 0.12323, "ORIG_FID": 427 }, "geometry": { "type": "Point", "coordinates": [ -122.48227, 47.27676 ] } },
{ "type": "Feature", "properties": { "OBJECTID": 428, "NAME": "Gile County Park", "FCC": "D85", "SQMI": 0.16052, "ORIG_FID": 428 }, "geometry": { "type": "Point", "coordinates": [ -90.21226, 46.42562 ] } },
{ "type": "Feature", "properties": { "OBJECTID": 429, "NAME": "Battleground SF", "FCC": "D85", "SQMI": 26.83104, "ORIG_FID": 429 }, "geometry": { "type": "Point", "coordinates": [ -94.25873, 47.1968 ] } },
{ "type": "Feature", "properties": { "OBJECTID": 430, "NAME": "Toll House Park", "FCC": "D85", "SQMI": 0.00573, "ORIG_FID": 430 }, "geometry": { "type": "Point", "coordinates": [ -121.89701, 45.66245 ] } },
{ "type": "Feature", "properties": { "OBJECTID": 431, "NAME": "Schomberg County Park", "FCC": "D85", "SQMI": 7.43809, "ORIG_FID": 431 }, "geometry": { "type": "Point", "coordinates": [ -90.16517, 46.30844 ] } },
{ "type": "Feature", "properties": { "OBJECTID": 432, "NAME": "Old Town Park", "FCC": "D85", "SQMI": 0.00915, "ORIG_FID": 432 }, "geometry": { "type": "Point", "coordinates": [ -122.46807, 47.27407 ] } },
{ "type": "Feature", "properties": { "OBJECTID": 433, "NAME": "John B Yeon State Park", "FCC": "D85", "SQMI": 29.12964, "ORIG_FID": 433 }, "geometry": { "type": "Point", "coordinates": [ -121.97769, 45.59033 ] } },
{ "type": "Feature", "properties": { "OBJECTID": 434, "NAME": "Blackduck SF", "FCC": "D85", "SQMI": 191.25585, "ORIG_FID": 434 }, "geometry": { "type": "Point", "coordinates": [ -94.36525, 47.64208 ] } },
{ "type": "Feature", "properties": { "OBJECTID": 435, "NAME": "Soudan Underground Mine", "FCC": "D85", "SQMI": 1.74139, "ORIG_FID": 435 }, "geometry": { "type": "Point", "coordinates": [ -92.245, 47.82597 ] } },
{ "type": "Feature", "properties": { "OBJECTID": 436, "NAME": "Little Girls Pt County Park", "FCC": "D85", "SQMI": 60.64558, "ORIG_FID": 436 }, "geometry": { "type": "Point", "coordinates": [ -90.18545, 46.60231 ] } },
{ "type": "Feature", "properties": { "OBJECTID": 437, "NAME": "Buena Vista SF", "FCC": "D85", "SQMI": 189.61552, "ORIG_FID": 437 }, "geometry": { "type": "Point", "coordinates": [ -94.66003, 47.58197 ] } },
{ "type": "Feature", "properties": { "OBJECTID": 438, "NAME": "Ainsworth State Park", "FCC": "D85", "SQMI": 0.37466, "ORIG_FID": 438 }, "geometry": { "type": "Point", "coordinates": [ -122.06203, 45.59447 ] } },
{ "type": "Feature", "properties": { "OBJECTID": 439, "NAME": "Bear Island SF", "FCC": "D85", "SQMI": 208.99505, "ORIG_FID": 439 }, "geometry": { "type": "Point", "coordinates": [ -91.9008, 47.8043 ] } },
{ "type": "Feature", "properties": { "OBJECTID": 440, "NAME": "Snake Lake Park", "FCC": "D85", "SQMI": 0.40683, "ORIG_FID": 440 }, "geometry": { "type": "Point", "coordinates": [ -122.49168, 47.23851 ] } },
{ "type": "Feature", "properties": { "OBJECTID": 441, "NAME": "Mount Zion Park", "FCC": "D85", "SQMI": 0.75915, "ORIG_FID": 441 }, "geometry": { "type": "Point", "coordinates": [ -90.16888, 46.4746 ] } },
{ "type": "Feature", "properties": { "OBJECTID": 442, "NAME": "Mckinley Park", "FCC": "D85", "SQMI": 0.05374, "ORIG_FID": 442 }, "geometry": { "type": "Point", "coordinates": [ -122.42201, 47.23508 ] } },
{ "type": "Feature", "properties": { "OBJECTID": 443, "NAME": "Lake Flambeau County Park", "FCC": "D85", "SQMI": 0.00464, "ORIG_FID": 443 }, "geometry": { "type": "Point", "coordinates": [ -91.04843, 45.48447 ] } },
{ "type": "Feature", "properties": { "OBJECTID": 444, "NAME": "Paul Bunyan SF", "FCC": "D85", "SQMI": 162.12209, "ORIG_FID": 444 }, "geometry": { "type": "Point", "coordinates": [ -94.86945, 47.17022 ] } },
{ "type": "Feature", "properties": { "OBJECTID": 445, "NAME": "Beacon Rock State Park", "FCC": "D83", "SQMI": 27.54871, "ORIG_FID": 445 }, "geometry": { "type": "Point", "coordinates": [ -122.00587, 45.68196 ] } },
{ "type": "Feature", "properties": { "OBJECTID": 446, "NAME": "Burntside SF", "FCC": "D85", "SQMI": 110.13534, "ORIG_FID": 446 }, "geometry": { "type": "Point", "coordinates": [ -92.03356, 47.96798 ] } },
{ "type": "Feature", "properties": { "OBJECTID": 447, "NAME": "Swan Creek Park", "FCC": "D85", "SQMI": 0.12807, "ORIG_FID": 447 }, "geometry": { "type": "Point", "coordinates": [ -122.39031, 47.2241 ] } },
{ "type": "Feature", "properties": { "OBJECTID": 448, "NAME": "Riverside Park", "FCC": "D85", "SQMI": 0.05121, "ORIG_FID": 448 }, "geometry": { "type": "Point", "coordinates": [ -91.10463, 45.47418 ] } },
{ "type": "Feature", "properties": { "OBJECTID": 449, "NAME": "Welsh Lake SF", "FCC": "D85", "SQMI": 30.55583, "ORIG_FID": 449 }, "geometry": { "type": "Point", "coordinates": [ -94.60231, 47.25812 ] } },
{ "type": "Feature", "properties": { "OBJECTID": 450, "NAME": "Wygant State Park", "FCC": "D85", "SQMI": 3.50882, "ORIG_FID": 450 }, "geometry": { "type": "Point", "coordinates": [ -121.60725, 45.69457 ] } },
{ "type": "Feature", "properties": { "OBJECTID": 451, "NAME": "Insula Lake SF", "FCC": "D85", "SQMI": 0.7053, "ORIG_FID": 451 }, "geometry": { "type": "Point", "coordinates": [ -91.28341, 47.89509 ] } },
{ "type": "Feature", "properties": { "OBJECTID": 452, "NAME": "Greenwood Park", "FCC": "D85", "SQMI": 0.07005, "ORIG_FID": 452 }, "geometry": { "type": "Point", "coordinates": [ -91.08269, 45.47129 ] } },
{ "type": "Feature", "properties": { "OBJECTID": 453, "NAME": "De Coursey Park", "FCC": "D85", "SQMI": 0.05249, "ORIG_FID": 453 }, "geometry": { "type": "Point", "coordinates": [ -122.32124, 47.18823 ] } },
{ "type": "Feature", "properties": { "OBJECTID": 454, "NAME": "Schoolcraft", "FCC": "D85", "SQMI": 0.5038, "ORIG_FID": 454 }, "geometry": { "type": "Point", "coordinates": [ -93.80252, 47.22372 ] } },
{ "type": "Feature", "properties": { "OBJECTID": 455, "NAME": "Viento State Park", "FCC": "D85", "SQMI": 0.46589, "ORIG_FID": 455 }, "geometry": { "type": "Point", "coordinates": [ -121.66254, 45.69727 ] } },
{ "type": "Feature", "properties": { "OBJECTID": 456, "NAME": "Kabetogama SF", "FCC": "D85", "SQMI": 1251.04837, "ORIG_FID": 456 }, "geometry": { "type": "Point", "coordinates": [ -92.77197, 48.22905 ] } },
{ "type": "Feature", "properties": { "OBJECTID": 457, "NAME": "Brunet Island State Park", "FCC": "D85", "SQMI": 10.3466, "ORIG_FID": 457 }, "geometry": { "type": "Point", "coordinates": [ -91.18251, 45.1815 ] } },
{ "type": "Feature", "properties": { "OBJECTID": 458, "NAME": "Clark's Creek Park", "FCC": "D85", "SQMI": 0.81034, "ORIG_FID": 458 }, "geometry": { "type": "Point", "coordinates": [ -122.31647, 47.17742 ] } },
{ "type": "Feature", "properties": { "OBJECTID": 459, "NAME": "Schoolcraft", "FCC": "D85", "SQMI": 0.00403, "ORIG_FID": 459 }, "geometry": { "type": "Point", "coordinates": [ -93.80781, 47.23301 ] } },
{ "type": "Feature", "properties": { "OBJECTID": 460, "NAME": "Lake Jeanette SF", "FCC": "D85", "SQMI": 17.33564, "ORIG_FID": 460 }, "geometry": { "type": "Point", "coordinates": [ -92.25793, 48.13202 ] } },
{ "type": "Feature", "properties": { "OBJECTID": 461, "NAME": "Lindsey Creek State Park", "FCC": "D85", "SQMI": 0.60201, "ORIG_FID": 461 }, "geometry": { "type": "Point", "coordinates": [ -121.65022, 45.69325 ] } },
{ "type": "Feature", "properties": { "OBJECTID": 462, "NAME": "Pat Bayle SF", "FCC": "D85", "SQMI": 287.95962, "ORIG_FID": 462 }, "geometry": { "type": "Point", "coordinates": [ -90.56666, 47.8649 ] } },
{ "type": "Feature", "properties": { "OBJECTID": 463, "NAME": "Bowstring SF", "FCC": "D85", "SQMI": 821.88479, "ORIG_FID": 463 }, "geometry": { "type": "Point", "coordinates": [ -94.13076, 47.40966 ] } },
{ "type": "Feature", "properties": { "OBJECTID": 464, "NAME": "Rimrock County Park", "FCC": "D85", "SQMI": 0.12744, "ORIG_FID": 464 }, "geometry": { "type": "Point", "coordinates": [ -122.26182, 46.88909 ] } },
{ "type": "Feature", "properties": { "OBJECTID": 465, "NAME": "Pine Point County Park", "FCC": "D85", "SQMI": 0.13485, "ORIG_FID": 465 }, "geometry": { "type": "Point", "coordinates": [ -91.1628, 45.23932 ] } },
{ "type": "Feature", "properties": { "OBJECTID": 466, "NAME": "Starvation Creek State Park", "FCC": "D85", "SQMI": 0.24474, "ORIG_FID": 466 }, "geometry": { "type": "Point", "coordinates": [ -121.68476, 45.69055 ] } },
{ "type": "Feature", "properties": { "OBJECTID": 467, "NAME": "Josie Creek County Park", "FCC": "D85", "SQMI": 1.9027, "ORIG_FID": 467 }, "geometry": { "type": "Point", "coordinates": [ -90.95806, 45.5284 ] } },
{ "type": "Feature", "properties": { "OBJECTID": 468, "NAME": "George Washington SF", "FCC": "D85", "SQMI": 10.43629, "ORIG_FID": 468 }, "geometry": { "type": "Point", "coordinates": [ -93.36235, 47.67069 ] } },
{ "type": "Feature", "properties": { "OBJECTID": 469, "NAME": "County Park", "FCC": "D85", "SQMI": 2.58343, "ORIG_FID": 469 }, "geometry": { "type": "Point", "coordinates": [ -122.34607, 46.91187 ] } },
{ "type": "Feature", "properties": { "OBJECTID": 470, "NAME": "Lindsey Creek State Park", "FCC": "D85", "SQMI": 0.96486, "ORIG_FID": 470 }, "geometry": { "type": "Point", "coordinates": [ -121.73206, 45.68886 ] } },
{ "type": "Feature", "properties": { "OBJECTID": 471, "NAME": "Superior NF", "FCC": "D84", "SQMI": 5124.79966, "ORIG_FID": 471 }, "geometry": { "type": "Point", "coordinates": [ -91.52809, 47.83352 ] } },
{ "type": "Feature", "properties": { "OBJECTID": 472, "NAME": "County Park", "FCC": "D85", "SQMI": 6.85631, "ORIG_FID": 472 }, "geometry": { "type": "Point", "coordinates": [ -91.06711, 46.27984 ] } },
{ "type": "Feature", "properties": { "OBJECTID": 473, "NAME": "Lindsey Creek State Park", "FCC": "D85", "SQMI": 0.0041, "ORIG_FID": 473 }, "geometry": { "type": "Point", "coordinates": [ -121.68444, 45.68976 ] } },
{ "type": "Feature", "properties": { "OBJECTID": 474, "NAME": "Athens County Park", "FCC": "D85", "SQMI": 0.39585, "ORIG_FID": 474 }, "geometry": { "type": "Point", "coordinates": [ -90.07358, 45.0226 ] } },
{ "type": "Feature", "properties": { "OBJECTID": 475, "NAME": "Golden Anniversary SF", "FCC": "D85", "SQMI": 11.66866, "ORIG_FID": 475 }, "geometry": { "type": "Point", "coordinates": [ -93.45285, 47.11367 ] } },
{ "type": "Feature", "properties": { "OBJECTID": 476, "NAME": "Mahler State Park", "FCC": "D85", "SQMI": 0.38235, "ORIG_FID": 476 }, "geometry": { "type": "Point", "coordinates": [ -122.02178, 47.21559 ] } },
{ "type": "Feature", "properties": { "OBJECTID": 477, "NAME": "Great Divide Wayside Park", "FCC": "D85", "SQMI": 11.92433, "ORIG_FID": 477 }, "geometry": { "type": "Point", "coordinates": [ -90.67707, 46.18396 ] } },
{ "type": "Feature", "properties": { "OBJECTID": 478, "NAME": "Lindsey Creek State Park", "FCC": "D85", "SQMI": 0.01088, "ORIG_FID": 478 }, "geometry": { "type": "Point", "coordinates": [ -121.68865, 45.68672 ] } },
{ "type": "Feature", "properties": { "OBJECTID": 479, "NAME": "Glen Hills Co Park", "FCC": "D85", "SQMI": 4.43502, "ORIG_FID": 479 },